"track_name","latitude","longitude","views","artist_name","track_link","country_code","geo_name","geonameid","boundaries_admin_0","boundaries_admin_1","boundaries_postal_1"
"3 Daqat (feat. Yousra)",29.33278,48.02861,7943,"Abu","ejvpVhvKesM","KW","Ḩawallī",285629,"KW","KWA102","KWP130"
"Aalaporaan Thamizhan (Pooja Vaidyanath, Kailash Kher, Deepak & Sathyaprakash)",11.65376,78.15538,16774,"Pooja Vaidyanath","xsbLtHql4g8","IN","Salem",1257629,"IN","INA133","INP16360"
"Adio Amore",41.34514,21.55504,42061,"Stefan Đurić","syEHZpykluY","MK","Prilep",786735,"MK","MKA1005","MKP175"
"Adio Amore",41.71556,21.77556,23380,"Stefan Đurić","syEHZpykluY","MK","Veles",785058,"MK","MKA1001","MKP114"
"Adio Amore",41.99646,21.43141,347166,"Stefan Đurić","syEHZpykluY","MK","Skopje",785842,"MK","MKA1008","MKP111"
"Almaz Shaadaev эми мага баарыбир",42.87,74.59,688199,"--","2lLcPVx-61o","KG","Bishkek",1528675,"KG","KGA141711","KGP1720"
"Amor de Verdade (MC Kekel & Mc Rita) (feat. MC Kekel)",-20.31944,-40.33778,128901,"MC Kekel","8_oE-iQeFeE","BR","Vitória",3444924,"BR","BRA132",""
"Amor de Verdade (MC Kekel & Mc Rita) (feat. MC Kekel)",-20.66028,-43.78611,51525,"MC Kekel","8_oE-iQeFeE","BR","Conselheiro Lafaiete",3465644,"BR","BRA131",""
"Amor de Verdade (MC Kekel & Mc Rita) (feat. MC Kekel)",-21.38917,-42.69667,24257,"MC Kekel","8_oE-iQeFeE","BR","Cataguases",3466698,"BR","BRA131",""
"Amor de Verdade (MC Kekel & Mc Rita) (feat. MC Kekel)",-21.69694,-45.25333,38274,"MC Kekel","8_oE-iQeFeE","BR","Três Corações",3446138,"BR","BRA131",""
"Amor de Verdade (MC Kekel & Mc Rita) (feat. MC Kekel)",-22.28194,-42.53111,84928,"MC Kekel","8_oE-iQeFeE","BR","Nova Friburgo",3456166,"BR","BRA133",""
"Amor de Verdade (MC Kekel & Mc Rita) (feat. MC Kekel)",-22.73083,-45.12472,38951,"MC Kekel","8_oE-iQeFeE","BR","Lorena",3458425,"BR","BRA135",""
"Amor de Verdade (MC Kekel & Mc Rita) (feat. MC Kekel)",-26.30444,-48.84556,410688,"MC Kekel","8_oE-iQeFeE","BR","Joinville",3459712,"BR","BRA142",""
"Amor de Verdade (MC Kekel & Mc Rita) (feat. MC Kekel)",-26.48611,-49.06667,55680,"MC Kekel","8_oE-iQeFeE","BR","Jaraguá do Sul",3460102,"BR","BRA142",""
"Amor de Verdade (MC Kekel & Mc Rita) (feat. MC Kekel)",-26.91944,-49.06611,202745,"MC Kekel","8_oE-iQeFeE","BR","Blumenau",3469968,"BR","BRA142",""
"Amor de Verdade (MC Kekel & Mc Rita) (feat. MC Kekel)",-26.99056,-48.63472,52791,"MC Kekel","8_oE-iQeFeE","BR","Balneário Camboriú",3471039,"BR","BRA142",""
"Amor de Verdade (MC Kekel & Mc Rita) (feat. MC Kekel)",-27.21417,-49.64306,41667,"MC Kekel","8_oE-iQeFeE","BR","Rio do Sul",3451152,"BR","BRA142",""
"Amor de Verdade (MC Kekel & Mc Rita) (feat. MC Kekel)",-28.21171,-49.1632,168977,"MC Kekel","8_oE-iQeFeE","BR","São José",3448742,"BR","BRA142",""
"Amor de Verdade (MC Kekel & Mc Rita) (feat. MC Kekel)",-28.6775,-49.36972,182769,"MC Kekel","8_oE-iQeFeE","BR","Criciúma",3465196,"BR","BRA142",""
"Amor de Verdade (MC Kekel & Mc Rita) (feat. MC Kekel)",-28.93575,-49.49538,38313,"MC Kekel","8_oE-iQeFeE","BR","Araranguá",3471772,"BR","BRA142",""
"Amor de Verdade (MC Kekel & Mc Rita) (feat. MC Kekel)",-29.16806,-51.17944,266701,"MC Kekel","8_oE-iQeFeE","BR","Caxias do Sul",3466537,"BR","BRA143",""
"Amor de Verdade (MC Kekel & Mc Rita) (feat. MC Kekel)",-29.17139,-51.51917,45460,"MC Kekel","8_oE-iQeFeE","BR","Bento Gonçalves",3470073,"BR","BRA143",""
"Amor de Verdade (MC Kekel & Mc Rita) (feat. MC Kekel)",-29.46694,-51.96139,42548,"MC Kekel","8_oE-iQeFeE","BR","Lajeado",3459035,"BR","BRA143",""
"Amor de Verdade (MC Kekel & Mc Rita) (feat. MC Kekel)",-29.7175,-52.42583,69377,"MC Kekel","8_oE-iQeFeE","BR","Santa Cruz do Sul",3450269,"BR","BRA143",""
"Amor de Verdade (MC Kekel & Mc Rita) (feat. MC Kekel)",-29.76028,-51.14722,110948,"MC Kekel","8_oE-iQeFeE","BR","São Leopoldo",3448622,"BR","BRA143",""
"Amor de Verdade (MC Kekel & Mc Rita) (feat. MC Kekel)",-31.77194,-52.3425,279583,"MC Kekel","8_oE-iQeFeE","BR","Pelotas",3454244,"BR","BRA143",""
"Amor de Verdade (MC Kekel & Mc Rita) (feat. MC Kekel)",38.56667,-7.9,46391,"MC Kekel","8_oE-iQeFeE","PT","Évora",2268406,"PT","PTA118",""
"Amor de Verdade (MC Kekel & Mc Rita) (feat. MC Kekel)",38.62961,-9.11557,27090,"MC Kekel","8_oE-iQeFeE","PT","Amora",2271680,"PT","PTA117",""
"Amor de Verdade (MC Kekel & Mc Rita) (feat. MC Kekel)",38.64502,-9.14843,10532,"MC Kekel","8_oE-iQeFeE","PT","Corroios",2269041,"PT","PTA117",""
"Amor de Verdade (MC Kekel & Mc Rita) (feat. MC Kekel)",38.66314,-9.0724,36221,"MC Kekel","8_oE-iQeFeE","PT","Barreiro",2271071,"PT","PTA117",""
"Amor de Verdade (MC Kekel & Mc Rita) (feat. MC Kekel)",38.70123,-9.3276,24208,"MC Kekel","8_oE-iQeFeE","PT","São Domingos de Rana",2263352,"PT","PTA117",""
"Amor de Verdade (MC Kekel & Mc Rita) (feat. MC Kekel)",38.71667,-9.13333,1199134,"MC Kekel","8_oE-iQeFeE","PT","Lisbon",2267057,"PT","PTA117",""
"Amor de Verdade (MC Kekel & Mc Rita) (feat. MC Kekel)",38.75382,-9.23083,77604,"MC Kekel","8_oE-iQeFeE","PT","Amadora",2271772,"PT","PTA117",""
"Amor de Verdade (MC Kekel & Mc Rita) (feat. MC Kekel)",38.75657,-9.25451,38717,"MC Kekel","8_oE-iQeFeE","PT","Queluz",2264268,"PT","PTA117",""
"Amor de Verdade (MC Kekel & Mc Rita) (feat. MC Kekel)",38.77457,-9.3276,23334,"MC Kekel","8_oE-iQeFeE","PT","Rio de Mouro",2263827,"PT","PTA117",""
"Amor de Verdade (MC Kekel & Mc Rita) (feat. MC Kekel)",38.79269,-9.1838,27121,"MC Kekel","8_oE-iQeFeE","PT","Odivelas",2265467,"PT","PTA117",""
"Amor de Verdade (MC Kekel & Mc Rita) (feat. MC Kekel)",41.13363,-8.61742,163377,"MC Kekel","8_oE-iQeFeE","PT","Vila Nova de Gaia",2732544,"PT","PTA111",""
"Amor de Verdade (MC Kekel & Mc Rita) (feat. MC Kekel)",41.14961,-8.61099,978732,"MC Kekel","8_oE-iQeFeE","PT","Porto",2735943,"PT","PTA111",""
"Amor de Verdade (MC Kekel & Mc Rita) (feat. MC Kekel)",41.18259,-8.55811,38139,"MC Kekel","8_oE-iQeFeE","PT","Rio Tinto",2735083,"PT","PTA111",""
"Amor de Verdade (MC Kekel & Mc Rita) (feat. MC Kekel)",41.44443,-8.29619,84356,"MC Kekel","8_oE-iQeFeE","PT","Guimarães",2738752,"PT","PTA111",""
"Amor de Verdade (MC Kekel & Mc Rita) (feat. MC Kekel)",41.55032,-8.42005,166472,"MC Kekel","8_oE-iQeFeE","PT","Braga",2742032,"PT","PTA111",""
"Amor Falso",-15.3175,-49.1175,41746,"Aldair Playboy","MTNPQYt0NvI","BR","Goianésia",3462378,"BR","BRA152",""
"AR CAXVIDE-9707-DNC",42.26791,42.69459,115122,"GOGITA GOGIDZE","qNYaJgS9fFo","GE","Kutaisi",613607,"GE","GEA105","GEP146"
"Assurance",6.13748,1.21227,25814,"Davido","ucVJrja8r6Q","TG","Lomé",2365267,"TG","TGA101",""
"Assurance",6.45407,3.39467,677517,"Davido","ucVJrja8r6Q","NG","Lagos",2332459,"NG","NGA125","NGP110"
"Assurance",9.05785,7.49508,88374,"Davido","ucVJrja8r6Q","NG","Abuja",2352778,"NG","NGA115","NGP190"
"BBoom BBoom",10.31672,123.89071,4175738,"모모랜드(MOMOLAND)","JQGRg8XBnB4","PH","Cebu City",1717512,"PH","PHA107","PHP160"
"BBoom BBoom",10.66667,122.95,1194334,"모모랜드(MOMOLAND)","JQGRg8XBnB4","PH","Bacolod City",1729564,"PH","PHA106","PHP161"
"BBoom BBoom",10.69694,122.56444,303283,"모모랜드(MOMOLAND)","JQGRg8XBnB4","PH","Iloilo",1711005,"PH","PHA106","PHP150"
"BBoom BBoom",13.14125,123.74073,66167,"모모랜드(MOMOLAND)","JQGRg8XBnB4","PH","Legaspi",1706889,"PH","PHA105","PHP145"
"BBoom BBoom",13.61917,123.18139,171040,"모모랜드(MOMOLAND)","JQGRg8XBnB4","PH","Naga",1698829,"PH","PHA105","PHP144"
"BBoom BBoom",13.9411,121.1631,389150,"모모랜드(MOMOLAND)","JQGRg8XBnB4","PH","Lipa City",1706090,"PH","PHA104","PHP142"
"BBoom BBoom",14.21167,121.16528,648282,"모모랜드(MOMOLAND)","JQGRg8XBnB4","PH","Calamba",1720681,"PH","PHA104","PHP140"
"BBoom BBoom",14.31222,121.11139,815064,"모모랜드(MOMOLAND)","JQGRg8XBnB4","PH","Santa Rosa",1687894,"PH","PHA104","PHP140"
"BBoom BBoom",14.32944,120.93667,975182,"모모랜드(MOMOLAND)","JQGRg8XBnB4","PH","Dasmariñas",1715430,"PH","PHA104","PHP141"
"BBoom BBoom",14.34267,121.08071,81892,"모모랜드(MOMOLAND)","JQGRg8XBnB4","PH","Biñan",1725115,"PH","PHA104","PHP140"
"BBoom BBoom",14.42972,120.93667,305132,"모모랜드(MOMOLAND)","JQGRg8XBnB4","PH","Imus",1710914,"PH","PHA104","PHP141"
"BBoom BBoom",14.45056,120.98278,426064,"모모랜드(MOMOLAND)","JQGRg8XBnB4","PH","Las Piñas",1707174,"PH","PHA113","PHP117"
"BBoom BBoom",14.45903,120.92903,1697007,"모모랜드(MOMOLAND)","JQGRg8XBnB4","PH","Bacoor",1729524,"PH","PHA104","PHP141"
"BBoom BBoom",14.5243,121.0792,334026,"모모랜드(MOMOLAND)","JQGRg8XBnB4","PH","Taguig",1684308,"PH","PHA113","PHP116"
"BBoom BBoom",14.55027,121.03269,5008080,"모모랜드(MOMOLAND)","JQGRg8XBnB4","PH","Makati City",1703417,"PH","PHA113","PHP112"
"BBoom BBoom",14.5832,121.0409,129933,"모모랜드(MOMOLAND)","JQGRg8XBnB4","PH","Mandaluyong City",1701966,"PH","PHA113","PHP115"
"BBoom BBoom",14.58691,121.0614,1485790,"모모랜드(MOMOLAND)","JQGRg8XBnB4","PH","Pasig City",7290466,"PH","PHA113","PHP116"
"BBoom BBoom",14.6042,120.9822,4346868,"모모랜드(MOMOLAND)","JQGRg8XBnB4","PH","Manila",1701668,"PH","PHA113","PHP110"
"BBoom BBoom",14.62578,121.12251,945379,"모모랜드(MOMOLAND)","JQGRg8XBnB4","PH","Antipolo",1730501,"PH","PHA104","PHP118"
"BBoom BBoom",14.6488,121.0509,11475445,"모모랜드(MOMOLAND)","JQGRg8XBnB4","PH","Quezon City",1692192,"PH","PHA113","PHP111"
"BBoom BBoom",14.64953,120.96788,820070,"모모랜드(MOMOLAND)","JQGRg8XBnB4","PH","Caloocan City",1720151,"PH","PHA113","PHP114"
"BBoom BBoom",14.82917,120.28278,379702,"모모랜드(MOMOLAND)","JQGRg8XBnB4","PH","Olongapo",1697175,"PH","PHA103","PHP122"
"BBoom BBoom",15.03425,120.68445,80535,"모모랜드(MOMOLAND)","JQGRg8XBnB4","PH","San Fernando",1690039,"PH","PHA103","PHP120"
"BBoom BBoom",15.15,120.58333,1118495,"모모랜드(MOMOLAND)","JQGRg8XBnB4","PH","Angeles City",1730737,"PH","PHA103","PHP120"
"BBoom BBoom",16.04313,120.33325,152067,"모모랜드(MOMOLAND)","JQGRg8XBnB4","PH","Dagupan",1716198,"PH","PHA101","PHP124"
"BBoom BBoom",16.41639,120.59306,1667403,"모모랜드(MOMOLAND)","JQGRg8XBnB4","PH","Baguio",1728930,"PH","PHA114","PHP126"
"BBoom BBoom",6.11278,125.17167,185374,"모모랜드(MOMOLAND)","JQGRg8XBnB4","PH","General Santos",1713022,"PH","PHA112","PHP195"
"BBoom BBoom",6.91028,122.07389,23520,"모모랜드(MOMOLAND)","JQGRg8XBnB4","PH","Zamboanga",1679432,"PH","PHA109","PHP170"
"BBoom BBoom",7.07306,125.61278,4564146,"모모랜드(MOMOLAND)","JQGRg8XBnB4","PH","Davao",1715348,"PH","PHA111","PHP180"
"BBoom BBoom",8.2289,124.24344,448761,"모모랜드(MOMOLAND)","JQGRg8XBnB4","PH","Iligan",1711084,"PH","PHA110","PHP192"
"BBoom BBoom",8.25,124.4,448761,"모모랜드(MOMOLAND)","JQGRg8XBnB4","PH","Iligan City",1711082,"PH","PHA110","PHP192"
"BBoom BBoom",8.48222,124.64722,497963,"모모랜드(MOMOLAND)","JQGRg8XBnB4","PH","Cagayan de Oro",1721080,"PH","PHA110","PHP190"
"BBoom BBoom",8.94917,125.54361,26723,"모모랜드(MOMOLAND)","JQGRg8XBnB4","PH","Butuan",1722186,"PH","PHA116","PHP186"
"Bella (Wolfine & Maluma)",16.18405,-95.20143,53510,"Wolfine","jjuSfhYiup8","MX","Salina Cruz",3520064,"MX","MXA120","MXP170"
"Bella (Wolfine & Maluma)",16.43603,-95.01975,26460,"Wolfine","jjuSfhYiup8","MX","Juchitán de Zaragoza",3526357,"MX","MXA120","MXP170"
"Bella (Wolfine & Maluma)",18.46422,-97.39735,156925,"Wolfine","jjuSfhYiup8","MX","Tehuacán",3516109,"MX","MXA121","MXP175"
"Bella bionda (feat. Daniele De Martino)",38.13205,13.33561,543831,"Francesco D'Aleo","i-2TEee1OsQ","IT","Palermo",2523920,"IT","ITA119","ITP190"
"Better Than That (Govana & Jada Kingdom)",17.95032,-76.88215,26885,"Govana","XaqxZSugB2Y","JM","Portmore",3488981,"JM","JMA109","JMP1A"
"Bez tebe me nema",41.03143,21.33474,50317,"Saša Kovačević","CcnNguA4x9I","MK","Bitola",792578,"MK","MKA1005","MKP170"
"Bez tebe me nema",41.11722,20.80194,18530,"Saša Kovačević","CcnNguA4x9I","MK","Ohrid",787487,"MK","MKA1003","MKP160"
"Bez tebe me nema",41.4375,22.64333,40234,"Saša Kovačević","CcnNguA4x9I","MK","Strumica",785380,"MK","MKA1004","MKP124"
"Bez tebe me nema",41.74583,22.19583,31015,"Saša Kovačević","CcnNguA4x9I","MK","Shtip",785482,"MK","MKA1002","MKP120"
"Black Star (feat. Karina Koks & Igor Krutoy)",44.58883,33.5224,14461,"Тимати","HfRZ67HSDdA","UA","Sevastopol",694423,"UA","UAA185","UAP199"
"Black Star (feat. Karina Koks & Igor Krutoy)",55.91163,37.73076,17258,"Тимати","HfRZ67HSDdA","RU","Mytishchi",523812,"RU","RUA11","RUP114"
"Bom Diggy (Jasmin Walia & Zack Knight)",12.91723,74.85603,48155,"Jasmin Walia","yIIGQB6EMAM","IN","Mangalore",1263780,"IN","INA129","INP15750"
"Bom Diggy (Jasmin Walia & Zack Knight)",15.85212,74.50447,14194,"Jasmin Walia","yIIGQB6EMAM","IN","Belgaum",1276533,"IN","INA129","INP15900"
"Bom Diggy (Jasmin Walia & Zack Knight)",18.51957,73.85535,8730900,"Jasmin Walia","yIIGQB6EMAM","IN","Pune",1259229,"IN","INA127","INP14110"
"Bom Diggy (Jasmin Walia & Zack Knight)",18.62292,73.80696,267694,"Jasmin Walia","yIIGQB6EMAM","IN","Pimpri",1259652,"IN","INA127","INP14110"
"Bom Diggy (Jasmin Walia & Zack Knight)",19.03681,73.01582,420442,"Jasmin Walia","yIIGQB6EMAM","IN","Navi Mumbai",6619347,"IN","INA127","INP14006"
"Bom Diggy (Jasmin Walia & Zack Knight)",19.07283,72.88261,6982070,"Jasmin Walia","yIIGQB6EMAM","IN","Mumbai",1275339,"IN","INA127","INP14000"
"Bom Diggy (Jasmin Walia & Zack Knight)",19.19704,72.96355,282157,"Jasmin Walia","yIIGQB6EMAM","IN","Thāne",1254661,"IN","INA127","INP14212"
"Bom Diggy (Jasmin Walia & Zack Knight)",19.21667,73.08333,103825,"Jasmin Walia","yIIGQB6EMAM","IN","Dombivli",1272423,"IN","INA127","INP14212"
"Bom Diggy (Jasmin Walia & Zack Knight)",19.21667,73.15,142277,"Jasmin Walia","yIIGQB6EMAM","IN","Ulhasnagar",1253894,"IN","INA127","INP14213"
"Bom Diggy (Jasmin Walia & Zack Knight)",19.30023,73.05881,83181,"Jasmin Walia","yIIGQB6EMAM","IN","Bhiwandi",1275901,"IN","INA127","INP14213"
"Bom Diggy (Jasmin Walia & Zack Knight)",19.45591,72.81136,33459,"Jasmin Walia","yIIGQB6EMAM","IN","Virār",1253133,"IN","INA127","INP14013"
"Bom Diggy (Jasmin Walia & Zack Knight)",19.99727,73.79096,60774,"Jasmin Walia","yIIGQB6EMAM","IN","Nashik",1261731,"IN","INA127","INP14220"
"Bom Diggy (Jasmin Walia & Zack Knight)",21.14631,79.08491,273319,"Jasmin Walia","yIIGQB6EMAM","IN","Nagpur",1262180,"IN","INA127","INP14400"
"Bom Diggy (Jasmin Walia & Zack Knight)",21.19594,72.83023,731399,"Jasmin Walia","yIIGQB6EMAM","IN","Sūrat",1255364,"IN","INA124","INP13950"
"Bom Diggy (Jasmin Walia & Zack Knight)",22.29941,73.20812,143630,"Jasmin Walia","yIIGQB6EMAM","IN","Vadodara",1253573,"IN","INA124","INP13900"
"Bom Diggy (Jasmin Walia & Zack Knight)",22.80278,86.18545,16912,"Jasmin Walia","yIIGQB6EMAM","IN","Jamshedpur",1269300,"IN","INA120","INP18310"
"Bom Diggy (Jasmin Walia & Zack Knight)",23.34316,85.3094,32596,"Jasmin Walia","yIIGQB6EMAM","IN","Ranchi",1258526,"IN","INA120","INP18340"
"Bom Diggy (Jasmin Walia & Zack Knight)",24.58584,73.71346,22957,"Jasmin Walia","yIIGQB6EMAM","IN","Udaipur",1253986,"IN","INA108","INP13130"
"Bom Diggy (Jasmin Walia & Zack Knight)",25.18254,75.83907,20168,"Jasmin Walia","yIIGQB6EMAM","IN","Kota",1266049,"IN","INA108","INP13240"
"Bom Diggy (Jasmin Walia & Zack Knight)",25.31668,83.01041,97208,"Jasmin Walia","yIIGQB6EMAM","IN","Varanasi",1253405,"IN","INA109","INP12210"
"Bom Diggy (Jasmin Walia & Zack Knight)",25.44478,81.84322,44930,"Jasmin Walia","yIIGQB6EMAM","IN","Allahābād",1278994,"IN","INA109","INP12110"
"Bom Diggy (Jasmin Walia & Zack Knight)",26.4521,74.63867,18822,"Jasmin Walia","yIIGQB6EMAM","IN","Ajmer",1279159,"IN","INA108","INP13050"
"Bom Diggy (Jasmin Walia & Zack Knight)",26.46523,80.34975,90837,"Jasmin Walia","yIIGQB6EMAM","IN","Kanpur",1267995,"IN","INA109","INP12080"
"Boo'd Up",-21.28585,55.41124,411019,"Ella Mai","6YNZlXfW6Ho","RE","Saint-Louis",935223,"RE","REA12","REP197450"
"Boo'd Up",27.94752,-82.45843,441142,"Ella Mai","6YNZlXfW6Ho","US","Tampa",4174757,"US","USA112","USP133"
"Boo'd Up",28.53834,-81.37924,1266642,"Ella Mai","6YNZlXfW6Ho","US","Orlando",4167147,"US","USA112","USP132"
"Boo'd Up",28.55778,-81.4534,29917,"Ella Mai","6YNZlXfW6Ho","US","Pine Hills",4168459,"US","USA112","USP132"
"Boo'd Up",29.65163,-82.32483,99866,"Ella Mai","6YNZlXfW6Ho","US","Gainesville",4156404,"US","USA112","USP132"
"Boo'd Up",29.95465,-90.07507,283938,"Ella Mai","6YNZlXfW6Ho","US","New Orleans",4335045,"US","USA122","USP170"
"Boo'd Up",30.08605,-94.10185,35716,"Ella Mai","6YNZlXfW6Ho","US","Beaumont",4672989,"US","USA148","USP177"
"Boo'd Up",30.21309,-93.2044,24382,"Ella Mai","6YNZlXfW6Ho","US","Lake Charles",4330236,"US","USA122","USP170"
"Boo'd Up",30.22409,-92.01984,46290,"Ella Mai","6YNZlXfW6Ho","US","Lafayette",4330145,"US","USA122","USP170"
"Boo'd Up",30.33218,-81.65565,237934,"Ella Mai","6YNZlXfW6Ho","US","Jacksonville",4160021,"US","USA112","USP132"
"Boo'd Up",30.36742,-89.09282,23089,"Ella Mai","6YNZlXfW6Ho","US","Gulfport",4428667,"US","USA128","USP139"
"Boo'd Up",30.42131,-87.21691,22009,"Ella Mai","6YNZlXfW6Ho","US","Pensacola",4168228,"US","USA112","USP132"
"Boo'd Up",30.43826,-84.28073,86635,"Ella Mai","6YNZlXfW6Ho","US","Tallahassee",4174715,"US","USA112","USP132"
"Boo'd Up",30.45075,-91.15455,124221,"Ella Mai","6YNZlXfW6Ho","US","Baton Rouge",4315588,"US","USA122","USP170"
"Boo'd Up",30.69436,-88.04305,61273,"Ella Mai","6YNZlXfW6Ho","US","Mobile",4076598,"US","USA101","USP136"
"Boo'd Up",30.83334,-83.28032,53105,"Ella Mai","6YNZlXfW6Ho","US","Valdosta",4228147,"US","USA113","USP131"
"Boo'd Up",31.22323,-85.39049,28500,"Ella Mai","6YNZlXfW6Ho","US","Dothan",4059102,"US","USA101","USP136"
"Boo'd Up",31.31129,-92.44514,19220,"Ella Mai","6YNZlXfW6Ho","US","Alexandria",4314550,"US","USA122","USP171"
"Boo'd Up",31.32712,-89.29034,206403,"Ella Mai","6YNZlXfW6Ho","US","Hattiesburg",4429295,"US","USA128","USP139"
"Boo'd Up",31.57851,-84.15574,61300,"Ella Mai","6YNZlXfW6Ho","US","Albany",4179320,"US","USA113","USP131"
"Boo'd Up",32.08354,-81.09983,72051,"Ella Mai","6YNZlXfW6Ho","US","Savannah",4221552,"US","USA113","USP131"
"Boo'd Up",32.29876,-90.18481,178919,"Ella Mai","6YNZlXfW6Ho","US","Jackson",4431410,"US","USA128","USP139"
"Boo'd Up",32.35126,-95.30106,39435,"Ella Mai","6YNZlXfW6Ho","US","Tyler",4738214,"US","USA148","USP175"
"Boo'd Up",32.36681,-86.29997,118620,"Ella Mai","6YNZlXfW6Ho","US","Montgomery",4076784,"US","USA101","USP136"
"Boo'd Up",32.46098,-84.98771,82280,"Ella Mai","6YNZlXfW6Ho","US","Columbus",4188985,"US","USA113","USP131"
"Boo'd Up",32.5007,-94.74049,27216,"Ella Mai","6YNZlXfW6Ho","US","Longview",4707814,"US","USA148","USP175"
"Boo'd Up",32.50931,-92.1193,48461,"Ella Mai","6YNZlXfW6Ho","US","Monroe",4333669,"US","USA122","USP171"
"Boo'd Up",32.51599,-93.73212,18654,"Ella Mai","6YNZlXfW6Ho","US","Bossier City",4317639,"US","USA122","USP171"
"Boo'd Up",32.61574,-83.62664,37986,"Ella Mai","6YNZlXfW6Ho","US","Warner Robins",4229476,"US","USA113","USP131"
"Boo'd Up",32.77657,-79.93092,54158,"Ella Mai","6YNZlXfW6Ho","US","Charleston",4574324,"US","USA145","USP129"
"Boo'd Up",32.78306,-96.80667,1756142,"Ella Mai","6YNZlXfW6Ho","US","Dallas",4684888,"US","USA148","USP175"
"Boo'd Up",32.84069,-83.6324,71188,"Ella Mai","6YNZlXfW6Ho","US","Macon",4207400,"US","USA113","USP131"
"Boo'd Up",32.85462,-79.97481,17879,"Ella Mai","6YNZlXfW6Ho","US","North Charleston",4589387,"US","USA145","USP129"
"Boo'd Up",33.20984,-87.56917,52108,"Ella Mai","6YNZlXfW6Ho","US","Tuscaloosa",4094455,"US","USA101","USP135"
"Boo'd Up",33.47097,-81.97484,104192,"Ella Mai","6YNZlXfW6Ho","US","Augusta",4180531,"US","USA113","USP130"
"Boo'd Up",33.52066,-86.80249,510259,"Ella Mai","6YNZlXfW6Ho","US","Birmingham",4049979,"US","USA101","USP135"
"Boo'd Up",33.749,-84.38798,2549943,"Ella Mai","6YNZlXfW6Ho","US","Atlanta",4180439,"US","USA113","USP130"
"Boo'd Up",33.92044,-80.34147,45790,"Ella Mai","6YNZlXfW6Ho","US","Sumter",4597948,"US","USA145","USP129"
"Boo'd Up",34.00071,-81.03481,81494,"Ella Mai","6YNZlXfW6Ho","US","Columbia",4575352,"US","USA145","USP129"
"Boo'd Up",34.60593,-86.98334,12763,"Ella Mai","6YNZlXfW6Ho","US","Decatur",4058553,"US","USA101","USP135"
"Boo'd Up",34.74648,-92.28959,78556,"Ella Mai","6YNZlXfW6Ho","US","Little Rock",4119403,"US","USA105","USP172"
"Boo'd Up",34.92487,-81.02508,28586,"Ella Mai","6YNZlXfW6Ho","US","Rock Hill",4593142,"US","USA145","USP129"
"Boo'd Up",35.05266,-78.87836,86813,"Ella Mai","6YNZlXfW6Ho","US","Fayetteville",4466033,"US","USA137","USP128"
"Boo'd Up",35.14953,-90.04898,710034,"Ella Mai","6YNZlXfW6Ho","US","Memphis",4641239,"US","USA147","USP138"
"Boo'd Up",35.26208,-81.1873,26219,"Ella Mai","6YNZlXfW6Ho","US","Gastonia",4467732,"US","USA137","USP128"
"Boo'd Up",35.61452,-88.81395,38549,"Ella Mai","6YNZlXfW6Ho","US","Jackson",4632595,"US","USA147","USP138"
"Boo'd Up",35.72127,-77.91554,28020,"Ella Mai","6YNZlXfW6Ho","US","Wilson",4499389,"US","USA137","USP127"
"Boo'd Up",35.7721,-78.63861,284643,"Ella Mai","6YNZlXfW6Ho","US","Raleigh",4487042,"US","USA137","USP127"
"Boo'd Up",35.8423,-90.70428,28515,"Ella Mai","6YNZlXfW6Ho","US","Jonesboro",4116834,"US","USA105","USP172"
"Boo'd Up",35.93821,-77.79053,30647,"Ella Mai","6YNZlXfW6Ho","US","Rocky Mount",4488762,"US","USA137","USP127"
"Boo'd Up",35.95569,-80.00532,28036,"Ella Mai","6YNZlXfW6Ho","US","High Point",4471025,"US","USA137","USP127"
"Boo'd Up",36.07264,-79.79198,118086,"Ella Mai","6YNZlXfW6Ho","US","Greensboro",4469146,"US","USA137","USP127"
"Boo'd Up",36.16589,-86.78444,728438,"Ella Mai","6YNZlXfW6Ho","US","Nashville",4644585,"US","USA147","USP137"
"Boo'd Up",36.72836,-76.58496,25829,"Ella Mai","6YNZlXfW6Ho","US","Suffolk",4788158,"US","USA151","USP123"
"Boo'd Up",36.83543,-76.29827,28698,"Ella Mai","6YNZlXfW6Ho","US","Portsmouth",4779999,"US","USA151","USP123"
"Boo'd Up",36.84681,-76.28522,119494,"Ella Mai","6YNZlXfW6Ho","US","Norfolk",4776222,"US","USA151","USP123"
"Boo'd Up",37.55376,-77.46026,112115,"Ella Mai","6YNZlXfW6Ho","US","Richmond",4781708,"US","USA151","USP123"
"Boo'd Up",38.62727,-90.19789,411019,"Ella Mai","6YNZlXfW6Ho","US","St. Louis",4407066,"US","USA129","USP163"
"Boo'd Up",38.78922,-90.32261,40699,"Ella Mai","6YNZlXfW6Ho","US","Florissant",4386802,"US","USA129","USP163"
"Boo'd Up",39.74595,-75.54659,31020,"Ella Mai","6YNZlXfW6Ho","US","Wilmington",4145381,"US","USA110","USP119"
"Boo'd Up",39.75895,-84.19161,63997,"Ella Mai","6YNZlXfW6Ho","US","Dayton",4509884,"US","USA139","USP145"
"Boo'd Up",39.84031,-88.9548,25540,"Ella Mai","6YNZlXfW6Ho","US","Decatur",4236895,"US","USA117","USP162"
"Boo'd Up",40.21705,-74.74294,28939,"Ella Mai","6YNZlXfW6Ho","US","Trenton",5105496,"US","USA134","USP108"
"Boo'd Up",40.2737,-76.88442,19126,"Ella Mai","6YNZlXfW6Ho","US","Harrisburg",5192726,"US","USA142","USP117"
"Boo'd Up",40.69365,-89.58899,33090,"Ella Mai","6YNZlXfW6Ho","US","Peoria",4905687,"US","USA117","USP161"
"Boo'd Up",40.73232,-74.23487,14733,"Ella Mai","6YNZlXfW6Ho","US","Irvington",5099724,"US","USA134","USP107"
"Boo'd Up",41.08144,-81.51901,50011,"Ella Mai","6YNZlXfW6Ho","US","Akron",5145476,"US","USA139","USP144"
"Boo'd Up",41.09978,-80.64952,18087,"Ella Mai","6YNZlXfW6Ho","US","Youngstown",5177568,"US","USA139","USP144"
"Boo'd Up",41.4995,-81.69541,130469,"Ella Mai","6YNZlXfW6Ho","US","Cleveland",5150529,"US","USA139","USP144"
"Boo'd Up",41.59337,-87.34643,32055,"Ella Mai","6YNZlXfW6Ho","US","Gary",4920607,"US","USA118","USP146"
"Boo'd Up",41.66394,-83.55521,81159,"Ella Mai","6YNZlXfW6Ho","US","Toledo",5174035,"US","USA139","USP143"
"Boo'd Up",41.68338,-86.25001,26100,"Ella Mai","6YNZlXfW6Ho","US","South Bend",4926563,"US","USA118","USP146"
"Boo'd Up",42.24087,-83.26965,21230,"Ella Mai","6YNZlXfW6Ho","US","Taylor",5011908,"US","USA126","USP148"
"Boo'd Up",42.33143,-83.04575,1578924,"Ella Mai","6YNZlXfW6Ho","US","Detroit",4990729,"US","USA126","USP148"
"Boo'd Up",42.72613,-87.78285,24261,"Ella Mai","6YNZlXfW6Ho","US","Racine",5268249,"US","USA155","USP153"
"Boo'd Up",42.88645,-78.87837,119686,"Ella Mai","6YNZlXfW6Ho","US","Buffalo",5110629,"US","USA136","USP114"
"Boo'd Up",43.0389,-87.90647,249893,"Ella Mai","6YNZlXfW6Ho","US","Milwaukee",5263045,"US","USA155","USP153"
"Bro (feat. Bâna)",35.56496,45.4329,309037,"Navid Zardi","Va58NK3V3L4","IQ","As Sulaymānīyah",98463,"IQ","IQA118","IQP146"
"Bro (feat. Bâna)",36.19257,44.01062,479992,"Navid Zardi","Va58NK3V3L4","IQ","Erbil",95446,"IQ","IQA116","IQP144"
"Bu Benim Öyküm",35.12054,33.93894,54925,"Eli Türkoğlu","3RmbF8i5YsI","CY","Famagusta",146617,"CY","CYA13","CYP150"
"Bu Benim Öyküm",35.17531,33.3642,168040,"Eli Türkoğlu","3RmbF8i5YsI","CY","Nicosia",146268,"CY","CYA11","CYP119"
"Bu Benim Öyküm",36.54375,31.99982,44509,"Eli Türkoğlu","3RmbF8i5YsI","TR","Alanya",324190,"TR","TRA107","TRP107"
"Bu Benim Öyküm",36.58718,36.17347,219504,"Eli Türkoğlu","3RmbF8i5YsI","TR","İskenderun",311111,"TR","TRA131","TRP131"
"Bu Benim Öyküm",36.64038,29.12758,163849,"Eli Türkoğlu","3RmbF8i5YsI","TR","Fethiye",314967,"TR","TRA148","TRP148"
"Bu Benim Öyküm",36.90812,30.69556,1532723,"Eli Türkoğlu","3RmbF8i5YsI","TR","Antalya",323777,"TR","TRA107","TRP107"
"Bu Benim Öyküm",37.05944,37.3825,961128,"Eli Türkoğlu","3RmbF8i5YsI","TR","Gaziantep",314830,"TR","TRA127","TRP127"
"Bu Benim Öyküm",37.07417,36.24778,128869,"Eli Türkoğlu","3RmbF8i5YsI","TR","Osmaniye",303195,"TR","TRA180","TRP180"
"Bu Benim Öyküm",37.16708,38.79392,332332,"Eli Türkoğlu","3RmbF8i5YsI","TR","Şanlıurfa",298333,"TR","TRA163","TRP163"
"Bu Benim Öyküm",37.18111,33.215,102634,"Eli Türkoğlu","3RmbF8i5YsI","TR","Karaman",309527,"TR","TRA170","TRP170"
"Bu Benim Öyküm",37.21807,28.3665,27964,"Eli Türkoğlu","3RmbF8i5YsI","TR","Muğla",304184,"TR","TRA148","TRP148"
"Bu Benim Öyküm",37.5847,36.92641,298625,"Eli Türkoğlu","3RmbF8i5YsI","TR","Kahramanmaraş",310859,"TR","TRA146","TRP146"
"Bu Benim Öyküm",37.72028,30.29083,18192,"Eli Türkoğlu","3RmbF8i5YsI","TR","Burdur",320392,"TR","TRA115","TRP115"
"Bu Benim Öyküm",37.76441,38.27629,115939,"Eli Türkoğlu","3RmbF8i5YsI","TR","Adıyaman",325330,"TR","TRA102","TRP102"
"Bu Benim Öyküm",37.76444,30.55222,262034,"Eli Türkoğlu","3RmbF8i5YsI","TR","Isparta",311073,"TR","TRA132","TRP132"
"Bu Benim Öyküm",37.77417,29.0875,497625,"Eli Türkoğlu","3RmbF8i5YsI","TR","Denizli",317109,"TR","TRA120","TRP120"
"Bu Benim Öyküm",37.84501,27.83963,350699,"Eli Türkoğlu","3RmbF8i5YsI","TR","Aydın",322830,"TR","TRA109","TRP109"
"Bu Benim Öyküm",37.87135,32.48464,998467,"Eli Türkoğlu","3RmbF8i5YsI","TR","Konya",306571,"TR","TRA142","TRP142"
"Bu Benim Öyküm",37.88738,41.13221,139551,"Eli Türkoğlu","3RmbF8i5YsI","TR","Batman",321836,"TR","TRA172","TRP172"
"Bu Benim Öyküm",37.91363,40.21721,554381,"Eli Türkoğlu","3RmbF8i5YsI","TR","Diyarbakır",316541,"TR","TRA121","TRP121"
"Bu Benim Öyküm",37.96583,34.67935,111398,"Eli Türkoğlu","3RmbF8i5YsI","TR","Niğde",303827,"TR","TRA151","TRP151"
"Bu Benim Öyküm",38.35018,38.31667,266569,"Eli Türkoğlu","3RmbF8i5YsI","TR","Malatya",304922,"TR","TRA144","TRP144"
"Bu Benim Öyküm",38.37255,34.02537,140477,"Eli Türkoğlu","3RmbF8i5YsI","TR","Aksaray",324496,"TR","TRA168","TRP168"
"Bu Benim Öyküm",38.41273,27.13838,3964471,"Eli Türkoğlu","3RmbF8i5YsI","TR","İzmir",311046,"TR","TRA135","TRP135"
"Bu Benim Öyküm",38.48258,28.14774,139556,"Eli Türkoğlu","3RmbF8i5YsI","TR","Salihli",302043,"TR","TRA145","TRP145"
"Bu Benim Öyküm",38.49457,43.38323,239974,"Eli Türkoğlu","3RmbF8i5YsI","TR","Van",298117,"TR","TRA165","TRP165"
"Bu Benim Öyküm",38.61202,27.42647,349217,"Eli Türkoğlu","3RmbF8i5YsI","TR","Manisa",304827,"TR","TRA145","TRP145"
"Bu Benim Öyküm",38.625,34.71222,118136,"Eli Türkoğlu","3RmbF8i5YsI","TR","Nevşehir",303831,"TR","TRA150","TRP150"
"Bu Benim Öyküm",38.67351,29.4058,162786,"Eli Türkoğlu","3RmbF8i5YsI","TR","Uşak",298299,"TR","TRA164","TRP164"
"Bu Benim Öyküm",38.67431,39.22321,235298,"Eli Türkoğlu","3RmbF8i5YsI","TR","Elazığ",315808,"TR","TRA123","TRP123"
"Bu Benim Öyküm",38.73222,35.48528,590023,"Eli Türkoğlu","3RmbF8i5YsI","TR","Kayseri",308464,"TR","TRA138","TRP138"
"Bu Benim Öyküm",38.75667,30.54333,238159,"Eli Türkoğlu","3RmbF8i5YsI","TR","Afyonkarahisar",325303,"TR","TRA103","TRP103"
"Bu Benim Öyküm",39.14583,34.16389,79621,"Eli Türkoğlu","3RmbF8i5YsI","TR","Kırşehir",307515,"TR","TRA140","TRP140"
"Bu Benim Öyküm",39.42417,29.98333,213028,"Eli Türkoğlu","3RmbF8i5YsI","TR","Kütahya",305268,"TR","TRA143","TRP143"
"Bu Benim Öyküm",39.64917,27.88611,407056,"Eli Türkoğlu","3RmbF8i5YsI","TR","Balıkesir",322165,"TR","TRA110","TRP110"
"Bu Benim Öyküm",39.71944,43.05139,59578,"Eli Türkoğlu","3RmbF8i5YsI","TR","Ağrı",309647,"TR","TRA104","TRP104"
"Bu Benim Öyküm",39.73919,39.49015,80073,"Eli Türkoğlu","3RmbF8i5YsI","TR","Erzincan",315373,"TR","TRA124","TRP124"
"Bu Benim Öyküm",39.74833,37.01611,257649,"Eli Türkoğlu","3RmbF8i5YsI","TR","Sivas",300619,"TR","TRA158","TRP158"
"Bu Benim Öyküm",39.77667,30.52056,466013,"Eli Türkoğlu","3RmbF8i5YsI","TR","Eskişehir",315202,"TR","TRA126","TRP126"
"Bu Benim Öyküm",39.82,34.80444,113623,"Eli Türkoğlu","3RmbF8i5YsI","TR","Yozgat",296562,"TR","TRA166","TRP166"
"Bu Benim Öyküm",39.84528,33.50639,117063,"Eli Türkoğlu","3RmbF8i5YsI","TR","Kırıkkale",307654,"TR","TRA171","TRP171"
"Bu Benim Öyküm",39.90861,41.27694,593366,"Eli Türkoğlu","3RmbF8i5YsI","TR","Erzurum",315368,"TR","TRA125","TRP125"
"Bu Benim Öyküm",39.91987,32.85427,5052736,"Eli Türkoğlu","3RmbF8i5YsI","TR","Ankara",323786,"TR","TRA106","TRP106"
"Bu Benim Öyküm",40.14192,29.97932,97766,"Eli Türkoğlu","3RmbF8i5YsI","TR","Bilecik",750598,"TR","TRA111","TRP111"
"Bu Benim Öyküm",40.15552,26.41271,244886,"Eli Türkoğlu","3RmbF8i5YsI","TR","Çanakkale",749780,"TR","TRA117","TRP117"
"Bu Benim Öyküm",40.31389,36.55444,158434,"Eli Türkoğlu","3RmbF8i5YsI","TR","Tokat",738743,"TR","TRA160","TRP160"
"Bu Benim Öyküm",40.35222,27.97667,80934,"Eli Türkoğlu","3RmbF8i5YsI","TR","Bandırma",751077,"TR","TRA110","TRP110"
"Bu Benim Öyküm",40.54889,34.95333,159456,"Eli Türkoğlu","3RmbF8i5YsI","TR","Çorum",748879,"TR","TRA119","TRP119"
"Bu Benim Öyküm",40.59825,43.08548,62303,"Eli Türkoğlu","3RmbF8i5YsI","TR","Kars",743952,"TR","TRA136","TRP136"
"Bu Benim Öyküm",40.59995,33.6153,56183,"Eli Türkoğlu","3RmbF8i5YsI","TR","Khanjarah",749748,"TR","TRA118","TRP118"
"Bu Benim Öyküm",40.65333,35.83306,112886,"Eli Türkoğlu","3RmbF8i5YsI","TR","Amasya",752015,"TR","TRA105","TRP105"
"Bu Benim Öyküm",40.65501,29.27693,117860,"Eli Türkoğlu","3RmbF8i5YsI","TR","Yalova",738025,"TR","TRA177","TRP177"
"Bu Benim Öyküm",40.73583,31.60611,123448,"Eli Türkoğlu","3RmbF8i5YsI","TR","Bolu",750516,"TR","TRA114","TRP114"
"Bu Benim Öyküm",40.83889,31.16389,154869,"Eli Türkoğlu","3RmbF8i5YsI","TR","Düzce",747764,"TR","TRA181","TRP181"
"Bu Benim Öyküm",40.91698,38.38741,136267,"Eli Türkoğlu","3RmbF8i5YsI","TR","Giresun",746881,"TR","TRA128","TRP128"
"Bu Benim Öyküm",40.97782,37.89047,201511,"Eli Türkoğlu","3RmbF8i5YsI","TR","Ordu",741100,"TR","TRA152","TRP152"
"Bu Benim Öyküm",40.9781,27.51101,33575,"Eli Türkoğlu","3RmbF8i5YsI","TR","Tekirdağ",738927,"TR","TRA159","TRP159"
"Bu Benim Öyküm",41.005,39.72694,360095,"Eli Türkoğlu","3RmbF8i5YsI","TR","Trabzon",738648,"TR","TRA161","TRP161"
"Bu Benim Öyküm",41.01384,28.94966,13874493,"Eli Türkoğlu","3RmbF8i5YsI","TR","Istanbul",745044,"TR","TRA134","TRP134"
"Bu Benim Öyküm",41.02083,40.52194,133390,"Eli Türkoğlu","3RmbF8i5YsI","TR","Rize",740483,"TR","TRA153","TRP153"
"Bu Benim Öyküm",41.15917,27.8,406148,"Eli Türkoğlu","3RmbF8i5YsI","TR","Çorlu",748893,"TR","TRA159","TRP159"
"Bu Benim Öyküm",41.20488,32.62768,163969,"Eli Türkoğlu","3RmbF8i5YsI","TR","Karabük",744562,"TR","TRA178","TRP178"
"Bu Benim Öyküm",41.27976,36.3361,595198,"Eli Türkoğlu","3RmbF8i5YsI","TR","Samsun",740264,"TR","TRA155","TRP155"
"Bu Benim Öyküm",41.37805,33.77528,113944,"Eli Türkoğlu","3RmbF8i5YsI","TR","Kastamonu",743882,"TR","TRA137","TRP137"
"Bu Benim Öyküm",41.40385,27.35918,151295,"Eli Türkoğlu","3RmbF8i5YsI","TR","Lüleburgaz",741855,"TR","TRA139","TRP139"
"Bu Benim Öyküm",41.45139,31.79305,244688,"Eli Türkoğlu","3RmbF8i5YsI","TR","Zonguldak",737022,"TR","TRA167","TRP167"
"Bu Benim Öyküm",41.67719,26.55597,185654,"Eli Türkoğlu","3RmbF8i5YsI","TR","Edirne",747712,"TR","TRA122","TRP122"
"Call Out My Name",35.76884,-119.24705,12035,"The Weeknd","M4ZoCHID9GI","US","Delano",5342485,"US","USA106","USP193"
"Call Out My Name",36.06523,-119.01677,15080,"The Weeknd","M4ZoCHID9GI","US","Porterville",5384471,"US","USA106","USP193"
"Call Out My Name",36.20773,-119.34734,15469,"The Weeknd","M4ZoCHID9GI","US","Tulare",5403783,"US","USA106","USP193"
"Catchu Catchu",46.516,6.63282,97001,"Lartiste","S6baf8BqKDI","CH","Lausanne",2659994,"CH","CHA122","CHP110"
"Catchu Catchu",49.61167,6.13,154949,"Lartiste","S6baf8BqKDI","LU","Luxembourg",2960316,"LU","LUA11","LUP116"
"Chun-Li",13.10732,-59.62021,106547,"Nicki Minaj","Wpm07-BGJnE","BB","Bridgetown",3374036,"BB","BBA106",""
"Chuttu Chuttu (Shamitha Malnad & Ravindra Soragavi)",12.29791,76.63925,32817,"Shamitha Malnad","mK9C6wViwn4","IN","Mysore",1262321,"IN","INA129","INP15700"
"Clip Scénario hd",35.16813,-2.93352,83431,"DJ Hamida","-Q17Udts81M","MA","Nador",2541479,"MA","MAA108","MAP16"
"Dame tu Cosita (feat. Cutty Ranks)",24.19167,55.76056,64470,"El Chombo","FzG4uDgje3M","AE","Al Ain",292913,"AE","AEA101",""
"Dame tu Cosita (feat. Cutty Ranks)",25.78953,55.9432,32896,"El Chombo","FzG4uDgje3M","AE","Ras al-Khaimah",291074,"AE","AEA105",""
"Dame tu Cosita (feat. Cutty Ranks)",35.69439,51.42151,3346,"El Chombo","FzG4uDgje3M","IR","Tehran",112931,"IR","IRA108","IRP111"
"Dancing on Our Own (feat. Joel Akoustik)",18.53917,-72.335,95343,"Ayiiti","IqAYUuLnjnE","HT","Port-au-Prince",3718426,"HT","",""
"Daru Badnaam (Kamal Kahlon & Param Singh)",21.23333,81.63333,64862,"Kamal Kahlon","bzW9fmwcmG4","IN","Raipur",1258980,"IN","INA122","INP14920"
"Daru Badnaam (Kamal Kahlon & Param Singh)",21.90174,70.0327,52823,"Kamal Kahlon","bzW9fmwcmG4","IN","Jodhpur",1268866,"IN","INA124","INP13605"
"Daru Badnaam (Kamal Kahlon & Param Singh)",22.29161,70.79322,343224,"Kamal Kahlon","bzW9fmwcmG4","IN","Rājkot",1258847,"IN","INA124","INP13600"
"Daru Badnaam (Kamal Kahlon & Param Singh)",22.71792,75.8333,11634692,"Kamal Kahlon","bzW9fmwcmG4","IN","Indore",1269743,"IN","INA123","INP14520"
"Daru Badnaam (Kamal Kahlon & Param Singh)",23.0391,90.76808,64862,"Kamal Kahlon","bzW9fmwcmG4","BD","Rāipur",1185236,"BD","BDA12","BDP137"
"Daru Badnaam (Kamal Kahlon & Param Singh)",23.16697,79.95006,28072,"Kamal Kahlon","bzW9fmwcmG4","IN","Jabalpur",1269633,"IN","INA123","INP14820"
"Daru Badnaam (Kamal Kahlon & Param Singh)",23.25469,77.40289,2423798,"Kamal Kahlon","bzW9fmwcmG4","IN","Bhopal",1275841,"IN","INA123","INP14620"
"Daru Badnaam (Kamal Kahlon & Param Singh)",26.22983,78.17337,21657,"Kamal Kahlon","bzW9fmwcmG4","IN","Gwalior",1270583,"IN","INA123","INP14740"
"Daru Badnaam (Kamal Kahlon & Param Singh)",26.26841,73.00594,52823,"Kamal Kahlon","bzW9fmwcmG4","IN","Jodhpur",1268865,"IN","INA108","INP13420"
"Daru Badnaam (Kamal Kahlon & Param Singh)",26.83928,80.92313,8005616,"Kamal Kahlon","bzW9fmwcmG4","IN","Lucknow",1264733,"IN","INA109","INP12260"
"Daru Badnaam (Kamal Kahlon & Param Singh)",26.91962,75.78781,7648133,"Kamal Kahlon","bzW9fmwcmG4","IN","Jaipur",1269515,"IN","INA108","INP13020"
"Daru Badnaam (Kamal Kahlon & Param Singh)",27.18333,78.01667,5150752,"Kamal Kahlon","bzW9fmwcmG4","IN","Agra",1279259,"IN","INA109","INP12820"
"Daru Badnaam (Kamal Kahlon & Param Singh)",28.36678,79.43167,20954,"Kamal Kahlon","bzW9fmwcmG4","IN","Bareilly",1277013,"IN","INA109","INP12430"
"Daru Badnaam (Kamal Kahlon & Param Singh)",28.41124,77.31316,43488,"Kamal Kahlon","bzW9fmwcmG4","IN","Faridabad",1271951,"IN","INA106","INP11210"
"Daru Badnaam (Kamal Kahlon & Param Singh)",28.4601,77.02635,354422,"Kamal Kahlon","bzW9fmwcmG4","IN","Gurgaon",1270642,"IN","INA106","INP11220"
"Daru Badnaam (Kamal Kahlon & Param Singh)",28.49615,77.53601,27087,"Kamal Kahlon","bzW9fmwcmG4","IN","Greater Noida",6954929,"IN","INA109","INP12013"
"Daru Badnaam (Kamal Kahlon & Param Singh)",28.58,77.33,396987,"Kamal Kahlon","bzW9fmwcmG4","IN","Noida",7279746,"IN","INA109","INP12013"
"Daru Badnaam (Kamal Kahlon & Param Singh)",28.66535,77.43915,138452,"Kamal Kahlon","bzW9fmwcmG4","IN","Ghāziābād",1271308,"IN","INA109","INP12010"
"Daru Badnaam (Kamal Kahlon & Param Singh)",28.98002,77.70636,417108,"Kamal Kahlon","bzW9fmwcmG4","IN","Meerut",1263214,"IN","INA109","INP12500"
"Daru Badnaam (Kamal Kahlon & Param Singh)",30.32443,78.03392,519057,"Kamal Kahlon","bzW9fmwcmG4","IN","Dehra Dūn",1273313,"IN","INA105","INP12480"
"Daru Badnaam (Kamal Kahlon & Param Singh)",30.33625,76.3922,23031,"Kamal Kahlon","bzW9fmwcmG4","IN","Patiāla",1260107,"IN","INA103","INP11470"
"Di Matamu",2.93527,101.69112,27397,"Sufian Suhaimi","IaW3TTCHL4Q","MY","Putrajaya",6697380,"MY","MYA116","MYP162"
"Djadja",-22.27407,166.44884,80191,"Aya Nakamura","iPGgnzc34tY","NC","Nouméa",2139521,"NC","",""
"Djadja",14.60892,-61.07334,164574,"Aya Nakamura","iPGgnzc34tY","MQ","Fort-de-France",3570675,"MQ","MQA102","MQP197"
"Djadja",4.93333,-52.33333,97109,"Aya Nakamura","iPGgnzc34tY","GF","Cayenne",3382160,"GF","",""
"Djadja",48.63333,2.45,41857,"Aya Nakamura","iPGgnzc34tY","FR","Évry",3019256,"FR","FRA111",""
"Djadja",48.75,2.3,19227,"Aya Nakamura","iPGgnzc34tY","FR","Antony",3037423,"FR","FRA111",""
"Djadja",48.78333,2.46667,50131,"Aya Nakamura","iPGgnzc34tY","FR","Créteil",3022530,"FR","FRA111",""
"Djadja",48.78716,2.40332,46629,"Aya Nakamura","iPGgnzc34tY","FR","Vitry-sur-Seine",2967849,"FR","FRA111",""
"Djadja",48.7939,2.35992,15784,"Aya Nakamura","iPGgnzc34tY","FR","Villejuif",2968705,"FR","FRA111",""
"Djadja",48.79395,2.49323,15919,"Aya Nakamura","iPGgnzc34tY","FR","Saint-Maur-des-Fossés",2978179,"FR","FRA111",""
"Djadja",48.80299,2.26692,21745,"Aya Nakamura","iPGgnzc34tY","FR","Clamart",3024783,"FR","FRA111",""
"Djadja",48.81171,2.43945,17637,"Aya Nakamura","iPGgnzc34tY","FR","Maisons-Alfort",2996568,"FR","FRA111",""
"Djadja",48.81568,2.38487,23483,"Aya Nakamura","iPGgnzc34tY","FR","Ivry-sur-Seine",3012621,"FR","FRA111",""
"Djadja",48.81642,2.49366,27927,"Aya Nakamura","iPGgnzc34tY","FR","Champigny-sur-Marne",3027105,"FR","FRA111",""
"Djadja",48.84979,2.56266,20445,"Aya Nakamura","iPGgnzc34tY","FR","Noisy-le-Grand",2990189,"FR","FRA111",""
"Djadja",48.85442,2.48268,39747,"Aya Nakamura","iPGgnzc34tY","FR","Fontenay-sous-Bois",3017910,"FR","FRA111",""
"Djadja",48.86415,2.44322,43296,"Aya Nakamura","iPGgnzc34tY","FR","Montreuil",2992090,"FR","FRA111",""
"Djadja",48.87017,2.4991,34350,"Aya Nakamura","iPGgnzc34tY","FR","Rosny-sous-Bois",2982757,"FR","FRA111",""
"Djadja",48.87143,2.22929,8617,"Aya Nakamura","iPGgnzc34tY","FR","Suresnes",2973675,"FR","FRA111",""
"Djadja",48.8765,2.18967,15118,"Aya Nakamura","iPGgnzc34tY","FR","Rueil-Malmaison",2982235,"FR","FRA111",""
"Djadja",48.88109,2.59295,28333,"Aya Nakamura","iPGgnzc34tY","FR","Chelles",3025622,"FR","FRA111",""
"Djadja",48.89198,2.20675,49285,"Aya Nakamura","iPGgnzc34tY","FR","Nanterre",2990970,"FR","FRA111",""
"Djadja",48.89389,2.28864,4997,"Aya Nakamura","iPGgnzc34tY","FR","Levallois-Perret",2998975,"FR","FRA111",""
"Djadja",48.89437,2.40935,36208,"Aya Nakamura","iPGgnzc34tY","FR","Pantin",2988621,"FR","FRA111",""
"Djadja",48.89672,2.25666,24340,"Aya Nakamura","iPGgnzc34tY","FR","Courbevoie",3023141,"FR","FRA111",""
"Djadja",48.90018,2.30952,17959,"Aya Nakamura","iPGgnzc34tY","FR","Clichy",3024597,"FR","FRA111",""
"Djadja",48.9018,2.48931,41762,"Aya Nakamura","iPGgnzc34tY","FR","Bondy",3031815,"FR","FRA111",""
"Djadja",48.91667,2.28333,29136,"Aya Nakamura","iPGgnzc34tY","FR","Asnières-sur-Seine",3036572,"FR","FRA111",""
"Djadja",48.91667,2.38333,43032,"Aya Nakamura","iPGgnzc34tY","FR","Aubervilliers",3036386,"FR","FRA111",""
"Djadja",48.91882,2.25404,25383,"Aya Nakamura","iPGgnzc34tY","FR","Colombes",3024266,"FR","FRA111",""
"Djadja",48.92578,2.44533,38555,"Aya Nakamura","iPGgnzc34tY","FR","Drancy",3020839,"FR","FRA111",""
"Djadja",48.93333,2.3,21467,"Aya Nakamura","iPGgnzc34tY","FR","Gennevilliers",3016321,"FR","FRA111",""
"Djadja",48.93814,2.49402,40547,"Aya Nakamura","iPGgnzc34tY","FR","Aulnay-sous-Bois",3036145,"FR","FRA111",""
"Djadja",48.93872,2.46138,19239,"Aya Nakamura","iPGgnzc34tY","FR","Le Blanc-Mesnil",3005269,"FR","FRA111",""
"Djadja",48.94472,2.52746,46171,"Aya Nakamura","iPGgnzc34tY","FR","Sevran",2974681,"FR","FRA111",""
"Djadja",48.9482,2.19169,17963,"Aya Nakamura","iPGgnzc34tY","FR","Sartrouville",2975921,"FR","FRA111",""
"Djadja",48.95,2.25,48014,"Aya Nakamura","iPGgnzc34tY","FR","Argenteuil",3037044,"FR","FRA111",""
"Djadja",48.96014,2.87885,37775,"Aya Nakamura","iPGgnzc34tY","FR","Meaux",2994798,"FR","FRA111",""
"Djadja",48.98333,1.71667,40294,"Aya Nakamura","iPGgnzc34tY","FR","Mantes-la-Jolie",2996148,"FR","FRA111",""
"Djadja",49,2.38333,35185,"Aya Nakamura","iPGgnzc34tY","FR","Sarcelles",2976043,"FR","FRA111",""
"Djadja",49.02414,1.15082,38129,"Aya Nakamura","iPGgnzc34tY","FR","Évreux",3019265,"FR","FRA128",""
"Djadja",49.03645,2.07613,54373,"Aya Nakamura","iPGgnzc34tY","FR","Cergy",3027883,"FR","FRA111",""
"Djadja",49.4938,0.10767,113853,"Aya Nakamura","iPGgnzc34tY","FR","Le Havre",3003796,"FR","FRA128",""
"Draai Het Om",51.765,5.51806,12871,"Boef","5sGzi54x-to","NL","Oss",2749234,"NL","NLA104","NLP153"
"Dura",-18.14161,178.44149,89493,"Daddy Yankee","sGIm0-dQd8M","FJ","Suva",2198148,"FJ","",""
"Dura",-37.46973,-72.35366,112140,"Daddy Yankee","sGIm0-dQd8M","CL","Los Ángeles",3882428,"CL","CLA108","CLP14"
"Dura",-41.4693,-72.94237,170018,"Daddy Yankee","sGIm0-dQd8M","CL","Puerto Montt",3874960,"CL","CLA110","CLP15"
"Dura",17.49952,-88.19756,40707,"Daddy Yankee","sGIm0-dQd8M","BZ","Belize City",3582677,"BZ","BZA13",""
"Dura",18.01108,-66.61406,85699,"Daddy Yankee","sGIm0-dQd8M","PR","Ponce",4566880,"PR","PRA172113","PRP1007"
"Dura",18.23412,-66.0485,42389,"Daddy Yankee","sGIm0-dQd8M","PR","Caguas",4563008,"PR","PRA172025","PRP1007"
"Dura",18.39856,-66.15572,141293,"Daddy Yankee","sGIm0-dQd8M","PR","Bayamón",4562831,"PR","PRA172021","PRP1009"
"Dura",25.4587,-108.07732,28149,"Daddy Yankee","sGIm0-dQd8M","MX","Guamúchil",4005297,"MX","MXA125","MXP181"
"Dura",25.56745,-108.46756,53624,"Daddy Yankee","sGIm0-dQd8M","MX","Guasave",4005219,"MX","MXA125","MXP181"
"Dura",25.79302,-108.99808,373674,"Daddy Yankee","sGIm0-dQd8M","MX","Los Mochis",3997479,"MX","MXA125","MXP181"
"Dura",5.86638,-55.16682,128920,"Daddy Yankee","sGIm0-dQd8M","SR","Paramaribo",3383330,"SR","SRA101",""
"EKALDI PARNAI",23.02579,72.58727,10439687,"Rakesh Barot","1-tbf-84JnM","IN","Ahmedabad",1279233,"IN","INA124","INP13800"
"Faz Gostoso",32.66568,-16.92547,72669,"Blaya","BbMu-H7i3D8","PT","Funchal",2267827,"PT","PTA130",""
"Faz Gostoso",37.01937,-7.93223,40826,"Blaya","BbMu-H7i3D8","PT","Faro",2268339,"PT","PTA115",""
"Faz Gostoso",39.74362,-8.80705,38872,"Blaya","BbMu-H7i3D8","PT","Leiria",2267095,"PT","PTA116",""
"Faz Gostoso",40.20564,-8.41955,126598,"Blaya","BbMu-H7i3D8","PT","Coimbra",2740637,"PT","PTA116",""
"Faz Gostoso",40.64427,-8.64554,56348,"Blaya","BbMu-H7i3D8","PT","Aveiro",2742611,"PT","PTA116",""
"Freaky Friday",-22.55941,17.08323,80420,"Lil Dicky","aZla1ttZHaw","NA","Windhoek",3352136,"NA","NAA111",""
"Freaky Friday",-29.61679,30.39278,20108,"Lil Dicky","aZla1ttZHaw","ZA","Pietermaritzburg",965301,"ZA","ZAA1KZN",""
"Freaky Friday",-29.8579,31.0292,73342,"Lil Dicky","aZla1ttZHaw","ZA","Durban",1007311,"ZA","ZAA1KZN",""
"Freaky Friday",-37.68611,176.16667,48804,"Lil Dicky","aZla1ttZHaw","NZ","Tauranga",2208032,"NZ","NZA104",""
"Freaky Friday",-37.78333,175.28333,68009,"Lil Dicky","aZla1ttZHaw","NZ","Hamilton",2190324,"NZ","NZA103",""
"Freaky Friday",-38.13874,176.24516,23025,"Lil Dicky","aZla1ttZHaw","NZ","Rotorua",6241325,"NZ","NZA104",""
"Freaky Friday",-39.06667,174.08333,16240,"Lil Dicky","aZla1ttZHaw","NZ","New Plymouth",2186239,"NZ","NZA107",""
"Freaky Friday",-39.4926,176.91233,31251,"Lil Dicky","aZla1ttZHaw","NZ","Napier",2186313,"NZ","NZA106",""
"Freaky Friday",-40.35636,175.61113,31614,"Lil Dicky","aZla1ttZHaw","NZ","Palmerston North",2185018,"NZ","NZA108",""
"Freaky Friday",19.72991,-155.09073,14853,"Lil Dicky","aZla1ttZHaw","US","Hilo",5855927,"US","USA115","USP196"
"Freaky Friday",39.76861,-94.84663,10813,"Lil Dicky","aZla1ttZHaw","US","Saint Joseph",4407010,"US","USA129","USP164"
"Freaky Friday",39.92423,-83.80882,21759,"Lil Dicky","aZla1ttZHaw","US","Springfield",4525353,"US","USA139","USP145"
"Freaky Friday",40.05812,-82.40126,13304,"Lil Dicky","aZla1ttZHaw","US","Newark",5164466,"US","USA139","USP143"
"Freaky Friday",40.79895,-81.37845,24477,"Lil Dicky","aZla1ttZHaw","US","Canton",5149222,"US","USA139","USP144"
"Freaky Friday",41.45282,-82.18237,14836,"Lil Dicky","aZla1ttZHaw","US","Lorain",5161262,"US","USA139","USP144"
"Freaky Friday",41.70149,-71.15505,15832,"Lil Dicky","aZla1ttZHaw","US","Fall River",4936159,"US","USA125","USP102"
"Freaky Friday",42.98339,-81.23304,3161485,"Lil Dicky","aZla1ttZHaw","CA","London",6058560,"CA","CAA135","CAP1N6B"
"Freaky Friday",43.1009,-75.23266,23344,"Lil Dicky","aZla1ttZHaw","US","Utica",5142056,"US","USA136","USP113"
"Freaky Friday",50.79509,-1.12902,14338,"Lil Dicky","aZla1ttZHaw","GB","Gosport",2648272,"GB","GBA1E10000014","GBP1PO"
"Freaky Friday",50.79899,-1.09125,85596,"Lil Dicky","aZla1ttZHaw","GB","Portsmouth",2639996,"GB","GBA1E06000044","GBP1PO"
"Freaky Friday",50.8567,-0.98559,8738,"Lil Dicky","aZla1ttZHaw","GB","Havant",2647317,"GB","GBA1E10000014","GBP1PO"
"Freaky Friday",50.90395,-1.40428,103741,"Lil Dicky","aZla1ttZHaw","GB","Southampton",2637487,"GB","GBA1E06000045","GBP1SO"
"Freaky Friday",51.01494,-3.10293,25493,"Lil Dicky","aZla1ttZHaw","GB","Taunton",2636177,"GB","GBA1E10000027","GBP1TA"
"Freaky Friday",51.11303,-0.18312,38518,"Lil Dicky","aZla1ttZHaw","GB","Crawley",2652053,"GB","GBA1E10000032","GBP1RH"
"Freaky Friday",51.12837,-3.00356,29392,"Lil Dicky","aZla1ttZHaw","GB","Bridgwater",2654730,"GB","GBA1E10000027","GBP1TA"
"Freaky Friday",51.14648,0.87376,18767,"Lil Dicky","aZla1ttZHaw","GB","Ashford",2656955,"GB","GBA1E10000016","GBP1TN"
"Freaky Friday",51.21135,-1.49393,14907,"Lil Dicky","aZla1ttZHaw","GB","Andover",2657324,"GB","GBA1E10000014","GBP1SP"
"Freaky Friday",51.26249,-1.08708,32073,"Lil Dicky","aZla1ttZHaw","GB","Basingstoke",2656192,"GB","GBA1E10000014","GBP1RG"
"Freaky Friday",51.26667,0.51667,36640,"Lil Dicky","aZla1ttZHaw","GB","Maidstone",2643179,"GB","GBA1E10000016","GBP1ME"
"Freaky Friday",51.29424,-0.75565,28772,"Lil Dicky","aZla1ttZHaw","GB","Farnborough",2649672,"GB","GBA1E10000014","GBP1GU"
"Freaky Friday",51.31889,-2.20861,10343,"Lil Dicky","aZla1ttZHaw","GB","Trowbridge",2635427,"GB","GBA1E06000054","GBP1BA"
"Freaky Friday",51.37891,0.52786,13124,"Lil Dicky","aZla1ttZHaw","GB","Chatham",2653305,"GB","GBA1E06000035","GBP1ME"
"Freaky Friday",51.38333,-0.1,82911,"Lil Dicky","aZla1ttZHaw","GB","Croydon",2651817,"GB","GBA1E09000001","GBP1CR"
"Freaky Friday",51.38914,0.54863,30195,"Lil Dicky","aZla1ttZHaw","GB","Gillingham",2648657,"GB","GBA1E06000035","GBP1ME"
"Freaky Friday",51.44206,0.37106,26457,"Lil Dicky","aZla1ttZHaw","GB","Gravesend",2648187,"GB","GBA1E10000016","GBP1DA"
"Freaky Friday",51.44657,0.21423,19693,"Lil Dicky","aZla1ttZHaw","GB","Dartford",2651500,"GB","GBA1E10000016","GBP1DA"
"Freaky Friday",51.45523,-2.59665,246068,"Lil Dicky","aZla1ttZHaw","GB","Bristol",2654675,"GB","GBA1E06000023","GBP1BS"
"Freaky Friday",51.47566,0.32521,20019,"Lil Dicky","aZla1ttZHaw","GB","Grays",2648182,"GB","GBA1E06000034","GBP1RM"
"Freaky Friday",51.48,-3.18,134790,"Lil Dicky","aZla1ttZHaw","GB","Cardiff",2653822,"GB","GBA1W06000015","GBP1CF"
"Freaky Friday",51.50583,-3.57722,51289,"Lil Dicky","aZla1ttZHaw","GB","Bridgend",2654755,"GB","GBA1W06000013","GBP1CF"
"Freaky Friday",51.50853,-0.12574,3161485,"Lil Dicky","aZla1ttZHaw","GB","London",2643743,"GB","GBA1E09000001","GBP1WC"
"Freaky Friday",51.51579,-0.4234,39947,"Lil Dicky","aZla1ttZHaw","GB","Hayes",2647261,"GB","GBA1E09000001","GBP1UB"
"Freaky Friday",51.53782,0.71433,52896,"Lil Dicky","aZla1ttZHaw","GB","Southend-on-Sea",2637433,"GB","GBA1E06000033","GBP1SS"
"Freaky Friday",51.55,0.16667,31419,"Lil Dicky","aZla1ttZHaw","GB","Dagenham",2651621,"GB","GBA1E09000001","GBP1RM"
"Freaky Friday",51.56844,0.45782,91448,"Lil Dicky","aZla1ttZHaw","GB","Basildon",2656194,"GB","GBA1E10000012","GBP1SS"
"Freaky Friday",51.58774,-2.99835,56297,"Lil Dicky","aZla1ttZHaw","GB","Newport",2641598,"GB","GBA1W06000022","GBP1NP"
"Freaky Friday",51.62079,-3.94323,38755,"Lil Dicky","aZla1ttZHaw","GB","Swansea",2636432,"GB","GBA1W06000011","GBP1SA"
"Freaky Friday",51.73575,0.46958,37644,"Lil Dicky","aZla1ttZHaw","GB","Chelmsford",2653266,"GB","GBA1E10000012","GBP1CM"
"Freaky Friday",51.75368,-0.44975,32528,"Lil Dicky","aZla1ttZHaw","GB","Hemel Hempstead",2647138,"GB","GBA1E10000015","GBP1HP"
"Freaky Friday",51.77655,0.11158,24487,"Lil Dicky","aZla1ttZHaw","GB","Harlow",2647461,"GB","GBA1E10000012","GBP1CM"
"Freaky Friday",51.86568,-2.2431,20045,"Lil Dicky","aZla1ttZHaw","GB","Gloucester",2648404,"GB","GBA1E10000013","GBP1GL"
"Freaky Friday",51.88921,0.90421,57194,"Lil Dicky","aZla1ttZHaw","GB","Colchester",2652618,"GB","GBA1E10000012","GBP1CO"
"Freaky Friday",51.90224,-0.20256,17266,"Lil Dicky","aZla1ttZHaw","GB","Stevenage",2636940,"GB","GBA1E10000015","GBP1SG"
"Freaky Friday",52.05917,1.15545,57882,"Lil Dicky","aZla1ttZHaw","GB","Ipswich",2646057,"GB","GBA1E10000029","GBP1IP"
"Freaky Friday",52.18935,-2.22001,35482,"Lil Dicky","aZla1ttZHaw","GB","Worcester",2633563,"GB","GBA1E10000034","GBP1WR"
"Freaky Friday",52.25,-0.88333,118048,"Lil Dicky","aZla1ttZHaw","GB","Northampton",2641430,"GB","GBA1E10000021","GBP1NN"
"Freaky Friday",52.3065,-1.94569,38734,"Lil Dicky","aZla1ttZHaw","GB","Redditch",2639557,"GB","GBA1E10000034","GBP1B"
"Freaky Friday",52.40656,-1.51217,134493,"Lil Dicky","aZla1ttZHaw","GB","Coventry",2652221,"GB","GBA1E11000005","GBP1CV"
"Freaky Friday",52.45608,-2.14317,22993,"Lil Dicky","aZla1ttZHaw","GB","Stourbridge",2636769,"GB","GBA1E11000005","GBP1DY"
"Freaky Friday",52.48142,-1.89983,465957,"Lil Dicky","aZla1ttZHaw","GB","Birmingham",2655603,"GB","GBA1E11000005","GBP1B"
"Freaky Friday",52.5,-2.08333,48665,"Lil Dicky","aZla1ttZHaw","GB","Dudley",2650839,"GB","GBA1E11000005","GBP1DY"
"Freaky Friday",52.51868,-1.9945,20296,"Lil Dicky","aZla1ttZHaw","GB","West Bromwich",2634491,"GB","GBA1E11000005","GBP1B"
"Freaky Friday",52.52323,-1.46523,22965,"Lil Dicky","aZla1ttZHaw","GB","Nuneaton",2641157,"GB","GBA1E10000031","GBP1CV"
"Freaky Friday",52.56667,-1.81667,16505,"Lil Dicky","aZla1ttZHaw","GB","Sutton Coldfield",2636486,"GB","GBA1E11000005","GBP1B"
"Freaky Friday",52.57364,-0.24777,61770,"Lil Dicky","aZla1ttZHaw","GB","Peterborough",2640354,"GB","GBA1E06000031","GBP1PE"
"Freaky Friday",52.58528,-1.98396,110618,"Lil Dicky","aZla1ttZHaw","GB","Walsall",2634853,"GB","GBA1E11000005","GBP1WS"
"Freaky Friday",52.58547,-2.12296,89322,"Lil Dicky","aZla1ttZHaw","GB","Wolverhampton",2633691,"GB","GBA1E11000005","GBP1WV"
"Freaky Friday",52.60831,1.73052,14662,"Lil Dicky","aZla1ttZHaw","GB","Great Yarmouth",2647984,"GB","GBA1E10000020","GBP1NR"
"Freaky Friday",52.62783,1.29834,85146,"Lil Dicky","aZla1ttZHaw","GB","Norwich",2641181,"GB","GBA1E10000020","GBP1NR"
"Freaky Friday",52.63399,-1.69587,18906,"Lil Dicky","aZla1ttZHaw","GB","Tamworth",2636276,"GB","GBA1E10000028","GBP1B"
"Freaky Friday",52.6386,-1.13169,4621,"Lil Dicky","aZla1ttZHaw","GB","Leicester",2644668,"GB","GBA1E06000016","GBP1LE"
"Freaky Friday",52.69045,-2.03085,38992,"Lil Dicky","aZla1ttZHaw","GB","Cannock",2653883,"GB","GBA1E10000028","GBP1WS"
"Freaky Friday",52.76667,-1.2,69669,"Lil Dicky","aZla1ttZHaw","GB","Loughborough",2643567,"GB","GBA1E10000018","GBP1LE"
"Freaky Friday",52.80521,-2.11636,14052,"Lil Dicky","aZla1ttZHaw","GB","Stafford",2637142,"GB","GBA1E10000028","GBP1ST"
"Freaky Friday",52.80728,-1.64263,37501,"Lil Dicky","aZla1ttZHaw","GB","Burton upon Trent",2654200,"GB","GBA1E10000028","GBP1DE"
"Freaky Friday",52.89855,-1.27136,18881,"Lil Dicky","aZla1ttZHaw","GB","Long Eaton",2643697,"GB","GBA1E10000007","GBP1NG"
"Freaky Friday",52.91149,-0.64184,10760,"Lil Dicky","aZla1ttZHaw","GB","Grantham",2648208,"GB","GBA1E10000019","GBP1NG"
"Freaky Friday",52.92277,-1.47663,98490,"Lil Dicky","aZla1ttZHaw","GB","Derby",2651347,"GB","GBA1E06000015","GBP1DE"
"Freaky Friday",52.92979,-1.12537,14357,"Lil Dicky","aZla1ttZHaw","GB","West Bridgford",2634493,"GB","GBA1E10000024","GBP1NG"
"Freaky Friday",52.9536,-1.15047,191945,"Lil Dicky","aZla1ttZHaw","GB","Nottingham",2641170,"GB","GBA1E06000018","GBP1NG"
"Freaky Friday",53.00415,-2.18538,130795,"Lil Dicky","aZla1ttZHaw","GB","Stoke-on-Trent",2636841,"GB","GBA1E06000021","GBP1ST"
"Freaky Friday",53.04664,-2.99132,30289,"Lil Dicky","aZla1ttZHaw","GB","Wrexham",2633485,"GB","GBA1W06000006","GBP1LL"
"Freaky Friday",53.09787,-2.44161,30796,"Lil Dicky","aZla1ttZHaw","GB","Crewe",2652002,"GB","GBA1E06000049","GBP1CW"
"Freaky Friday",53.12542,-1.26135,28713,"Lil Dicky","aZla1ttZHaw","GB","Sutton in Ashfield",2636484,"GB","GBA1E10000024","GBP1NG"
"Freaky Friday",53.13333,-1.2,43663,"Lil Dicky","aZla1ttZHaw","GB","Mansfield",2643097,"GB","GBA1E10000024","GBP1NG"
"Freaky Friday",53.25,-1.41667,38007,"Lil Dicky","aZla1ttZHaw","GB","Chesterfield",2653225,"GB","GBA1E10000007","GBP1S"
"Freaky Friday",53.34174,-2.73124,22847,"Lil Dicky","aZla1ttZHaw","GB","Runcorn",2638960,"GB","GBA1E06000006","GBP1WA"
"Freaky Friday",53.3618,-2.73406,24446,"Lil Dicky","aZla1ttZHaw","GB","Widnes",2633954,"GB","GBA1E06000006","GBP1WA"
"Freaky Friday",53.38297,-1.4659,263423,"Lil Dicky","aZla1ttZHaw","GB","Sheffield",2638077,"GB","GBA1E11000003","GBP1S"
"Freaky Friday",53.41058,-2.97794,344987,"Lil Dicky","aZla1ttZHaw","GB","Liverpool",2644210,"GB","GBA1E11000002","GBP1L"
"Freaky Friday",53.42519,-2.32443,26498,"Lil Dicky","aZla1ttZHaw","GB","Sale",2638678,"GB","GBA1E11000001","GBP1M"
"Freaky Friday",53.43012,-1.35678,28843,"Lil Dicky","aZla1ttZHaw","GB","Rotherham",2639093,"GB","GBA1E11000003","GBP1S"
"Freaky Friday",53.45,-2.73333,45676,"Lil Dicky","aZla1ttZHaw","GB","St Helens",2638785,"GB","GBA1E11000002","GBP1WA"
"Freaky Friday",53.48095,-2.23743,341921,"Lil Dicky","aZla1ttZHaw","GB","Manchester",2643123,"GB","GBA1E11000001","GBP1M"
"Freaky Friday",53.48771,-2.29042,24362,"Lil Dicky","aZla1ttZHaw","GB","Salford",2638671,"GB","GBA1E11000001","GBP1M"
"Freaky Friday",53.49642,-2.51973,17991,"Lil Dicky","aZla1ttZHaw","GB","Leigh",2644660,"GB","GBA1E11000001","GBP1WN"
"Freaky Friday",53.52285,-1.13116,61133,"Lil Dicky","aZla1ttZHaw","GB","Doncaster",2651123,"GB","GBA1E11000003","GBP1DN"
"Freaky Friday",53.54051,-2.1183,54096,"Lil Dicky","aZla1ttZHaw","GB","Oldham",2641022,"GB","GBA1E11000001","GBP1OL"
"Freaky Friday",53.54296,-2.63706,39882,"Lil Dicky","aZla1ttZHaw","GB","Wigan",2633948,"GB","GBA1E11000001","GBP1WN"
"Freaky Friday",53.55,-1.48333,55669,"Lil Dicky","aZla1ttZHaw","GB","Barnsley",2656284,"GB","GBA1E11000003","GBP1S"
"Freaky Friday",53.56539,-0.07553,38587,"Lil Dicky","aZla1ttZHaw","GB","Grimsby",2647878,"GB","GBA1E06000012","GBP1DN"
"Freaky Friday",53.57905,-0.65437,24396,"Lil Dicky","aZla1ttZHaw","GB","Scunthorpe",2638324,"GB","GBA1E06000013","GBP1DN"
"Freaky Friday",53.58333,-2.43333,105028,"Lil Dicky","aZla1ttZHaw","GB","Bolton",2655237,"GB","GBA1E11000001","GBP1BL"
"Freaky Friday",53.6,-2.3,40363,"Lil Dicky","aZla1ttZHaw","GB","Bury",2654187,"GB","GBA1E11000001","GBP1BL"
"Freaky Friday",53.61766,-2.1552,50755,"Lil Dicky","aZla1ttZHaw","GB","Rochdale",2639272,"GB","GBA1E11000001","GBP1OL"
"Freaky Friday",53.64904,-1.78416,30546,"Lil Dicky","aZla1ttZHaw","GB","Huddersfield",2646458,"GB","GBA1E11000006","GBP1HD"
"Freaky Friday",53.68331,-1.49768,26813,"Lil Dicky","aZla1ttZHaw","GB","Wakefield",2634910,"GB","GBA1E11000006","GBP1WF"
"Freaky Friday",53.71667,-1.85,51925,"Lil Dicky","aZla1ttZHaw","GB","Halifax",2647632,"GB","GBA1E11000006","GBP1HX"
"Freaky Friday",53.7446,-0.33525,84717,"Lil Dicky","aZla1ttZHaw","GB","Kingston upon Hull",2645425,"GB","GBA1E06000010","GBP1HU"
"Freaky Friday",53.79391,-1.75206,90275,"Lil Dicky","aZla1ttZHaw","GB","Bradford",2654993,"GB","GBA1E11000006","GBP1BD"
"Freaky Friday",53.79648,-1.54785,356115,"Lil Dicky","aZla1ttZHaw","GB","Leeds",2644688,"GB","GBA1E11000006","GBP1LS"
"Freaky Friday",53.81667,-3.05,59752,"Lil Dicky","aZla1ttZHaw","GB","Blackpool",2655459,"GB","GBA1E06000009","GBP1FY"
"Freaky Friday",54.52429,-1.55039,36973,"Lil Dicky","aZla1ttZHaw","GB","Darlington",2651513,"GB","GBA1E06000005","GBP1DL"
"Freaky Friday",54.56848,-1.3187,30627,"Lil Dicky","aZla1ttZHaw","GB","Stockton-on-Tees",2636876,"GB","GBA1E06000004","GBP1TS"
"Freaky Friday",54.57623,-1.23483,91524,"Lil Dicky","aZla1ttZHaw","GB","Middlesbrough",2642607,"GB","GBA1E06000002","GBP1TS"
"Freaky Friday",54.59682,-5.92541,184073,"Lil Dicky","aZla1ttZHaw","GB","Belfast",2655984,"GB","GBA1N09000003","GBP1BT"
"Freaky Friday",54.68611,-1.2125,29672,"Lil Dicky","aZla1ttZHaw","GB","Hartlepool",2647400,"GB","GBA1E06000001","GBP1TS"
"Freaky Friday",54.90465,-1.38222,70826,"Lil Dicky","aZla1ttZHaw","GB","Sunderland",2636531,"GB","GBA1E11000007","GBP1SR"
"Freaky Friday",54.96209,-1.60168,34509,"Lil Dicky","aZla1ttZHaw","GB","Gateshead",2648773,"GB","GBA1E11000007","GBP1NE"
"Freaky Friday",54.97328,-1.61396,191527,"Lil Dicky","aZla1ttZHaw","GB","Newcastle upon Tyne",2641673,"GB","GBA1E11000007","GBP1NE"
"Freaky Friday",54.99859,-1.4323,27986,"Lil Dicky","aZla1ttZHaw","GB","South Shields",2637329,"GB","GBA1E11000007","GBP1NE"
"Freaky Friday",55.76667,-4.03333,32819,"Lil Dicky","aZla1ttZHaw","GB","Hamilton",2647570,"GB","GBA1S12000029","GBP1ML"
"Freaky Friday",55.83173,-4.43254,16698,"Lil Dicky","aZla1ttZHaw","GB","Paisley",2640677,"GB","GBA1S12000038","GBP1PA"
"Freaky Friday",55.86515,-4.25763,268258,"Lil Dicky","aZla1ttZHaw","GB","Glasgow",2648579,"GB","GBA1S12000046","GBP1G"
"Freaky Friday",55.90288,-3.52261,33188,"Lil Dicky","aZla1ttZHaw","GB","Livingston",2644204,"GB","GBA1S12000040","GBP1EH"
"Freaky Friday",55.94838,-4.76121,13750,"Lil Dicky","aZla1ttZHaw","GB","Greenock",2647948,"GB","GBA1S12000018","GBP1PA"
"Friends (Marshmello & Anne-Marie)",49.854,18.54169,6604,"Marshmello","jzD_yyEcp0M","CZ","Karviná",3073789,"CZ","CZA180","CZP173"
"Friends (Marshmello & Anne-Marie)",50.46048,13.41779,8679,"Marshmello","jzD_yyEcp0M","CZ","Chomutov",3077685,"CZ","CZA142","CZP143"
"Friends (Marshmello & Anne-Marie)",55.64152,12.08035,13220,"Marshmello","jzD_yyEcp0M","DK","Roskilde",2614481,"DK","DKA1085","DKP140"
"Friends (Marshmello & Anne-Marie)",55.65719,12.47364,8345,"Marshmello","jzD_yyEcp0M","DK","Hvidovre",2619528,"DK","DKA1084","DKP126"
"Friends (Marshmello & Anne-Marie)",55.86066,9.85034,16567,"Marshmello","jzD_yyEcp0M","DK","Horsens",2619771,"DK","DKA1082","DKP187"
"Friends (Marshmello & Anne-Marie)",56.1697,9.54508,21900,"Marshmello","jzD_yyEcp0M","DK","Silkeborg",2614030,"DK","DKA1082","DKP186"
"Galy Anta",26.22787,50.58565,215643,"Saif Nabeel","Ld4J_JWeGY0","BH","Manama",290340,"BH","BHA11","BHP103"
"Gappi",42.21389,20.73972,1229,"Preet Hundal","IwJ0xHIYsg4","XK","Prizren",786712,"KS","KSA15","KSP120"
"Garun Garun",40.18111,44.51361,1242688,"Tigran Asatryan","aA2OJLBukLI","AM","Yerevan",616052,"AM","AMA101","AMP100"
"Ghazali",30.42018,-9.59815,446145,"Saad Lamjarred","lhnmVSB-Rxc","MA","Agadir",2561668,"MA","MAA104","MAP18"
"Ghazali",31.63416,-7.99994,512203,"Saad Lamjarred","lhnmVSB-Rxc","MA","Marrakesh",2542997,"MA","MAA107","MAP14"
"Ghazali",32.33725,-6.34983,75646,"Saad Lamjarred","lhnmVSB-Rxc","MA","Beni Mellal",2555745,"MA","MAA112","MAP12"
"Ghazali",33.00103,-7.61662,82772,"Saad Lamjarred","lhnmVSB-Rxc","MA","Settat",2537406,"MA","MAA106","MAP12"
"Ghazali",33.25682,-8.50882,100970,"Saad Lamjarred","lhnmVSB-Rxc","MA","El Jadid",2550078,"MA","MAA111","MAP12"
"Ghazali",33.58831,-7.61138,2526426,"Saad Lamjarred","lhnmVSB-Rxc","MA","Casablanca",2553604,"MA","MAA109","MAP12"
"Ghazali",33.89352,-5.54727,282196,"Saad Lamjarred","lhnmVSB-Rxc","MA","Meknès",2542715,"MA","MAA113","MAP15"
"Ghazali",34.01325,-6.83255,326259,"Saad Lamjarred","lhnmVSB-Rxc","MA","Rabat",2538475,"MA","MAA110","MAP11"
"Ghazali",34.03313,-5.00028,383301,"Saad Lamjarred","lhnmVSB-Rxc","MA","Fès",2548885,"MA","MAA114","MAP13"
"Ghazali",34.26101,-6.5802,206287,"Saad Lamjarred","lhnmVSB-Rxc","MA","Kenitra",2544571,"MA","MAA105","MAP11"
"Ghazali",35.76727,-5.79975,315118,"Saad Lamjarred","lhnmVSB-Rxc","MA","Tangier",2530335,"MA","MAA116","MAP19"
"Gledai kak se pravi (feat. Slavi Trifonov)",41.65,25.36667,57841,"Krisko","ycgvsLVtofA","BG","Kardzhali",729794,"BG","BGA142","BGP166"
"Gledai kak se pravi (feat. Slavi Trifonov)",41.93415,25.55557,92211,"Krisko","ycgvsLVtofA","BG","Haskovo",730435,"BG","BGA142","BGP163"
"Gledai kak se pravi (feat. Slavi Trifonov)",42.01667,23.1,106437,"Krisko","ycgvsLVtofA","BG","Blagoevgrad",733191,"BG","BGA141","BGP127"
"Gledai kak se pravi (feat. Slavi Trifonov)",42.01667,24.86667,41939,"Krisko","ycgvsLVtofA","BG","Asenovgrad",733618,"BG","BGA142","BGP142"
"Gledai kak se pravi (feat. Slavi Trifonov)",42.05,25.6,33558,"Krisko","ycgvsLVtofA","BG","Dimitrovgrad",732263,"BG","BGA142","BGP164"
"Gledai kak se pravi (feat. Slavi Trifonov)",42.15,24.75,330210,"Krisko","ycgvsLVtofA","BG","Plovdiv",728193,"BG","BGA142","BGP140"
"Gledai kak se pravi (feat. Slavi Trifonov)",42.2,24.33333,98594,"Krisko","ycgvsLVtofA","BG","Pazardzhik",728378,"BG","BGA142","BGP144"
"Gledai kak se pravi (feat. Slavi Trifonov)",42.28389,22.69111,38954,"Krisko","ycgvsLVtofA","BG","Kyustendil",729730,"BG","BGA141","BGP125"
"Gledai kak se pravi (feat. Slavi Trifonov)",42.43278,25.64194,141977,"Krisko","ycgvsLVtofA","BG","Stara Zagora",726848,"BG","BGA142","BGP160"
"Gledai kak se pravi (feat. Slavi Trifonov)",42.48333,26.5,70026,"Krisko","ycgvsLVtofA","BG","Yambol",725578,"BG","BGA134","BGP186"
"Gledai kak se pravi (feat. Slavi Trifonov)",42.50606,27.46781,222039,"Krisko","ycgvsLVtofA","BG","Burgas",732770,"BG","BGA134","BGP180"
"Gledai kak se pravi (feat. Slavi Trifonov)",42.6,23.03333,72309,"Krisko","ycgvsLVtofA","BG","Pernik",728330,"BG","BGA141","BGP123"
"Gledai kak se pravi (feat. Slavi Trifonov)",42.61667,25.4,70368,"Krisko","ycgvsLVtofA","BG","Kazanlak",730496,"BG","BGA142","BGP161"
"Gledai kak se pravi (feat. Slavi Trifonov)",42.68583,26.32917,111822,"Krisko","ycgvsLVtofA","BG","Sliven",727079,"BG","BGA134","BGP188"
"Gledai kak se pravi (feat. Slavi Trifonov)",42.69751,23.32415,3088361,"Krisko","ycgvsLVtofA","BG","Sofia",727011,"BG","BGA141","BGP110"
"Gledai kak se pravi (feat. Slavi Trifonov)",42.87472,25.33417,42742,"Krisko","ycgvsLVtofA","BG","Gabrovo",731549,"BG","BGA132","BGP153"
"Gledai kak se pravi (feat. Slavi Trifonov)",43.08124,25.62904,122743,"Krisko","ycgvsLVtofA","BG","Veliko Tŭrnovo",725993,"BG","BGA132","BGP150"
"Gledai kak se pravi (feat. Slavi Trifonov)",43.21,23.5625,77961,"Krisko","ycgvsLVtofA","BG","Vratsa",725712,"BG","BGA131","BGP130"
"Gledai kak se pravi (feat. Slavi Trifonov)",43.21667,27.91667,328324,"Krisko","ycgvsLVtofA","BG","Varna",726050,"BG","BGA133","BGP190"
"Gledai kak se pravi (feat. Slavi Trifonov)",43.27064,26.92286,91418,"Krisko","ycgvsLVtofA","BG","Shumen",727233,"BG","BGA133","BGP197"
"Gledai kak se pravi (feat. Slavi Trifonov)",43.41667,24.61667,108498,"Krisko","ycgvsLVtofA","BG","Pleven",728203,"BG","BGA132","BGP158"
"Gledai kak se pravi (feat. Slavi Trifonov)",43.56667,27.83333,92724,"Krisko","ycgvsLVtofA","BG","Dobrich",726418,"BG","BGA133","BGP193"
"Gledai kak se pravi (feat. Slavi Trifonov)",43.85639,25.97083,151513,"Krisko","ycgvsLVtofA","BG","Ruse",727523,"BG","BGA132","BGP170"
"Gledai kak se pravi (feat. Slavi Trifonov)",43.99,22.8725,48054,"Krisko","ycgvsLVtofA","BG","Vidin",725905,"BG","BGA131","BGP137"
"God's Plan",31.84568,-102.36764,24668,"Drake","xpVfcZ0ZcFM","US","Odessa",5527554,"US","USA148","USP179"
"God's Plan",33.78391,-116.95864,6068,"Drake","xpVfcZ0ZcFM","US","San Jacinto",5392090,"US","USA106","USP192"
"God's Plan",36.96134,-120.06072,17456,"Drake","xpVfcZ0ZcFM","US","Madera",5369568,"US","USA106","USP193"
"God's Plan",37.77422,-87.11333,15782,"Drake","xpVfcZ0ZcFM","US","Owensboro",4303436,"US","USA121","USP142"
"God's Plan",40.75839,-82.51545,11635,"Drake","xpVfcZ0ZcFM","US","Mansfield",5161723,"US","USA139","USP144"
"God's Plan",43.775,-88.43883,10056,"Drake","xpVfcZ0ZcFM","US","Fond du Lac",5253352,"US","USA155","USP154"
"Good Morning Teacher",19.90858,99.8325,204757,"Atom Chanagun","FtDaTXg1wOs","TH","Chiang Rai",1153669,"TH","THA157","THP157"
"Gringo",5.55602,-0.1969,792976,"Shatta Wale","2BnoV5WGQ1M","GH","Accra",2306104,"GH","GHA105",""
"Guleba (Mervin Solomon & Anirudh Ravichander)",10.78523,79.13909,15418,"Mervin Solomon","QVgSyvzmbxw","IN","Tanjore",1254649,"IN","INA133","INP16130"
"Guleba (Mervin Solomon & Anirudh Ravichander)",10.8155,78.69651,155378,"Mervin Solomon","QVgSyvzmbxw","IN","Tiruchirappalli",1254388,"IN","INA133","INP16201"
"Guleba (Mervin Solomon & Anirudh Ravichander)",11.93381,79.82979,87957,"Mervin Solomon","QVgSyvzmbxw","IN","Puducherry",1259425,"IN","INA134","INP16050"
"Guleba (Mervin Solomon & Anirudh Ravichander)",12.9184,79.13255,20701,"Mervin Solomon","QVgSyvzmbxw","IN","Vellore",1253286,"IN","INA133","INP16320"
"Guleba (Mervin Solomon & Anirudh Ravichander)",13.08784,80.27847,4601152,"Mervin Solomon","QVgSyvzmbxw","IN","Chennai",1264527,"IN","INA133","INP16000"
"Guleba (Mervin Solomon & Anirudh Ravichander)",8.72742,77.6838,15865,"Mervin Solomon","QVgSyvzmbxw","IN","Tirunelveli",1254361,"IN","INA133","INP16277"
"Hanen",9.02497,38.74689,163270,"Selamawit Yohannes","S0nA9MB4ULE","ET","Addis Ababa",344979,"ET","ETA110",""
"Hello",6.80448,-58.15527,79274,"Kes","Nh_iSHsVsPA","GY","Georgetown",3378644,"GY","GYA104",""
"Hurtin' Me",10.66668,-61.51889,193050,"French Montana","DNdLFbEZC2Y","TT","Port of Spain",3573890,"TT","TTA110",""
"Kalyaana Vayasu",11.00555,76.96612,567131,"Anirudh Ravichander","iPimqm8a1Nk","IN","Coimbatore",1273865,"IN","INA133","INP16410"
"Kalyaana Vayasu",9.91769,78.11898,25814,"Anirudh Ravichander","iPimqm8a1Nk","IN","Madurai",1264521,"IN","INA133","INP16250"
"Kawaii",31.25181,34.7913,163666,"Static and Ben El Tavori","Vj0GqUeUstM","IL","Beersheba",295530,"IL","ILA16","ILP184"
"Kawaii",31.66926,34.57149,47980,"Static and Ben El Tavori","Vj0GqUeUstM","IL","Ashkelon",295620,"IL","ILA16","ILP178"
"Kawaii",31.76904,35.21633,352295,"Static and Ben El Tavori","Vj0GqUeUstM","IL","Jerusalem",281184,"IL","ILA11","ILP192"
"Kawaii",31.78199,35.21961,352295,"Static and Ben El Tavori","Vj0GqUeUstM","IL","West Jerusalem",7498240,"IL","ILA11","ILP194"
"Kawaii",31.78336,35.23388,352295,"Static and Ben El Tavori","Vj0GqUeUstM","PS","East Jerusalem",7303419,"IL","ILA11","ILP197"
"Kawaii",31.79213,34.64966,80623,"Static and Ben El Tavori","Vj0GqUeUstM","IL","Ashdod",295629,"IL","ILA16","ILP177"
"Kawaii",31.89421,34.81199,90230,"Static and Ben El Tavori","Vj0GqUeUstM","IL","Reẖovot",293725,"IL","ILA14","ILP176"
"Kawaii",31.97102,34.78939,123753,"Static and Ben El Tavori","Vj0GqUeUstM","IL","Rishon LeẔiyyon",293703,"IL","ILA14","ILP175"
"Kawaii",32.01034,34.77918,106826,"Static and Ben El Tavori","Vj0GqUeUstM","IL","H̱olon",294751,"IL","ILA15","ILP158"
"Kawaii",32.08088,34.78057,6705108,"Static and Ben El Tavori","Vj0GqUeUstM","IL","Tel Aviv",293397,"IL","ILA15","ILP164"
"Kawaii",32.08227,34.81065,80622,"Static and Ben El Tavori","Vj0GqUeUstM","IL","Ramat Gan",293788,"IL","ILA15","ILP153"
"Kawaii",32.08707,34.88747,175268,"Static and Ben El Tavori","Vj0GqUeUstM","IL","Petaẖ Tiqwa",293918,"IL","ILA14","ILP149"
"Kawaii",32.16627,34.82536,55027,"Static and Ben El Tavori","Vj0GqUeUstM","IL","Herzliya",294778,"IL","ILA15","ILP146"
"Kawaii",32.175,34.90694,45921,"Static and Ben El Tavori","Vj0GqUeUstM","IL","Kfar Saba",294514,"IL","ILA14","ILP144"
"Kawaii",32.33291,34.85992,107822,"Static and Ben El Tavori","Vj0GqUeUstM","IL","Netanya",294071,"IL","ILA14","ILP142"
"Kawaii",32.44192,34.9039,50298,"Static and Ben El Tavori","Vj0GqUeUstM","IL","Hadera",294946,"IL","ILA13","ILP138"
"Kawaii",32.81841,34.9885,162177,"Static and Ben El Tavori","Vj0GqUeUstM","IL","Haifa",294801,"IL","ILA13","ILP133"
"Kawaii",33.00892,35.09814,40557,"Static and Ben El Tavori","Vj0GqUeUstM","IL","Nahariyya",294117,"IL","ILA12","ILP122"
"Kol Myliu",54.39635,24.04142,18047,"Ieva Zasimauskaitė","q5zBaNFUQ9A","LT","Alytus",601084,"LT","LTA101","LTP162"
"Kol Myliu",54.55991,23.35412,14621,"Ieva Zasimauskaitė","q5zBaNFUQ9A","LT","Marijampolė",597231,"LT","LTA104","LTP168"
"Kol Myliu",54.68916,25.2798,551733,"Ieva Zasimauskaitė","q5zBaNFUQ9A","LT","Vilnius",593116,"LT","LTA110","LTP101"
"Kol Myliu",55.70888,21.14312,62339,"Ieva Zasimauskaitė","q5zBaNFUQ9A","LT","Klaipėda",598098,"LT","LTA103","LTP191"
"Kol Myliu",55.73333,24.35,36830,"Ieva Zasimauskaitė","q5zBaNFUQ9A","LT","Panevėžys",596128,"LT","LTA105","LTP135"
"Kol Myliu",55.93333,23.31667,51469,"Ieva Zasimauskaitė","q5zBaNFUQ9A","LT","Šiauliai",594739,"LT","LTA106","LTP176"
"Kol Myliu",56.31667,22.33333,14835,"Ieva Zasimauskaitė","q5zBaNFUQ9A","LT","Mazeikiai",597188,"LT","LTA108","LTP189"
"Komshia",40.46667,19.48972,50753,"West Side Family","qIiD0jHyDSA","AL","Vlorë",3183719,"AL","ALA112","ALP194"
"Ksazobalit",-29.12107,26.214,19056,"Cassper Nyovest","d59ADlwvJQY","ZA","Bloemfontein",1018725,"ZA","ZAA1FS",""
"Kwa Ngwaru (feat. Diamond Platnumz)",-1.28333,36.81667,2655368,"Harmonize","alu7e4TnyAA","KE","Nairobi",184745,"KE","KEA104","KEP10"
"Kwa Ngwaru (feat. Diamond Platnumz)",-1.94995,30.05885,160994,"Harmonize","alu7e4TnyAA","RW","Kigali",202061,"RW","RWA11",""
"Kwa Ngwaru (feat. Diamond Platnumz)",-3.36667,36.68333,15179,"Harmonize","alu7e4TnyAA","TZ","Arusha",161325,"TZ","TZA101",""
"Kwa Ngwaru (feat. Diamond Platnumz)",-6.82349,39.26951,1844690,"Harmonize","alu7e4TnyAA","TZ","Dar es Salaam",160263,"TZ","TZA102",""
"La Cintura",33.99084,-118.46008,180997,"Alvaro Soler","Eg4LUvUjUWI","US","Venice",5405841,"US","USA106","USP190"
"La Cintura",37.07542,15.28664,84725,"Alvaro Soler","Eg4LUvUjUWI","IT","Siracusa",2523083,"IT","ITA119","ITP196"
"La Cintura",37.49223,15.07041,325257,"Alvaro Soler","Eg4LUvUjUWI","IT","Catania",2525068,"IT","ITA119","ITP195"
"La Cintura",38.19394,15.55256,41402,"Alvaro Soler","Eg4LUvUjUWI","IT","Messina",2524170,"IT","ITA119","ITP198"
"La Cintura",38.88247,16.60086,98891,"Alvaro Soler","Eg4LUvUjUWI","IT","Catanzaro",2525059,"IT","ITA118","ITP188"
"La Cintura",39.22935,9.25004,41039,"Alvaro Soler","Eg4LUvUjUWI","IT","Quartu Sant'Elena",2523665,"IT","ITA120","ITP109"
"La Cintura",39.23054,9.11917,66120,"Alvaro Soler","Eg4LUvUjUWI","IT","Cagliari",2525473,"IT","ITA120","ITP109"
"La Cintura",39.2989,16.25307,73779,"Alvaro Soler","Eg4LUvUjUWI","IT","Cosenza",2524907,"IT","ITA118","ITP187"
"La Cintura",40.35481,18.17244,123406,"Alvaro Soler","Eg4LUvUjUWI","IT","Lecce",3174953,"IT","ITA116","ITP173"
"La Cintura",40.46438,17.24707,78453,"Alvaro Soler","Eg4LUvUjUWI","IT","Taranto",3165926,"IT","ITA116","ITP174"
"La Cintura",40.67545,14.79328,50567,"Alvaro Soler","Eg4LUvUjUWI","IT","Salerno",3168673,"IT","ITA115","ITP184"
"La Cintura",40.72586,8.55552,74693,"Alvaro Soler","Eg4LUvUjUWI","IT","Sassari",3167096,"IT","ITA120","ITP107"
"La Cintura",40.91494,14.79103,28510,"Alvaro Soler","Eg4LUvUjUWI","IT","Avellino",3182650,"IT","ITA115","ITP183"
"La Cintura",41.11148,16.8554,294592,"Alvaro Soler","Eg4LUvUjUWI","IT","Bari",3182351,"IT","ITA116","ITP170"
"La Cintura",41.1307,14.77816,13672,"Alvaro Soler","Eg4LUvUjUWI","IT","Benevento",3182179,"IT","ITA115","ITP182"
"La Cintura",41.45845,15.55188,62501,"Alvaro Soler","Eg4LUvUjUWI","IT","Foggia",3176885,"IT","ITA116","ITP171"
"La Cintura",41.46614,12.9043,12672,"Alvaro Soler","Eg4LUvUjUWI","IT","Latina",3175058,"IT","ITA112","ITP104"
"La Cintura",41.89193,12.51133,2855414,"Alvaro Soler","Eg4LUvUjUWI","IT","Rome",3169070,"IT","ITA112","ITP100"
"La Cintura",42.34827,14.16494,58622,"Alvaro Soler","Eg4LUvUjUWI","IT","Chieti",3178796,"IT","ITA113","ITP166"
"La Cintura",42.4584,14.20283,103169,"Alvaro Soler","Eg4LUvUjUWI","IT","Pescara",3171168,"IT","ITA113","ITP165"
"La Cintura",42.56335,12.64329,28310,"Alvaro Soler","Eg4LUvUjUWI","IT","Terni",3165771,"IT","ITA110","ITP105"
"La Cintura",43.1122,12.38878,35926,"Alvaro Soler","Eg4LUvUjUWI","IT","Perugia",3171180,"IT","ITA110","ITP106"
"La Cintura",43.31822,11.33064,17180,"Alvaro Soler","Eg4LUvUjUWI","IT","Siena",3166548,"IT","ITA109","ITP153"
"La Cintura",43.5942,13.50337,29037,"Alvaro Soler","Eg4LUvUjUWI","IT","Ancona",3183089,"IT","ITA111","ITP160"
"La Cintura",43.70853,10.4036,69840,"Alvaro Soler","Eg4LUvUjUWI","IT","Pisa",3170647,"IT","ITA109","ITP156"
"La Cintura",43.77925,11.24626,385148,"Alvaro Soler","Eg4LUvUjUWI","IT","Florence",3176959,"IT","ITA109","ITP150"
"La Cintura",43.84369,10.50447,97570,"Alvaro Soler","Eg4LUvUjUWI","IT","Lucca",3174530,"IT","ITA109","ITP155"
"La Cintura",43.8805,11.09699,84344,"Alvaro Soler","Eg4LUvUjUWI","IT","Prato",3169921,"IT","ITA109","ITP159"
"La Cintura",44.05755,12.56528,73928,"Alvaro Soler","Eg4LUvUjUWI","IT","Rimini",3169361,"IT","ITA108","ITP147"
"La Cintura",44.1391,12.24315,43583,"Alvaro Soler","Eg4LUvUjUWI","IT","Cesena",3178957,"IT","ITA108","ITP147"
"La Cintura",44.22177,12.04144,35626,"Alvaro Soler","Eg4LUvUjUWI","IT","Forlì",3176746,"IT","ITA108","ITP147"
"La Cintura",44.40478,8.94439,171534,"Alvaro Soler","Eg4LUvUjUWI","IT","Genoa",3176219,"IT","ITA107","ITP116"
"La Cintura",44.41344,12.20121,20725,"Alvaro Soler","Eg4LUvUjUWI","IT","Ravenna",3169561,"IT","ITA108","ITP148"
"La Cintura",44.49381,11.33875,323832,"Alvaro Soler","Eg4LUvUjUWI","IT","Bologna",3181928,"IT","ITA108","ITP140"
"La Cintura",44.64783,10.92539,88587,"Alvaro Soler","Eg4LUvUjUWI","IT","Modena",3173331,"IT","ITA108","ITP141"
"La Cintura",44.69825,10.63125,51628,"Alvaro Soler","Eg4LUvUjUWI","IT","Reggio nell'Emilia",3169522,"IT","ITA108","ITP142"
"La Cintura",44.79935,10.32618,87810,"Alvaro Soler","Eg4LUvUjUWI","IT","Parma",3171457,"IT","ITA108","ITP143"
"La Cintura",44.83804,11.62057,12752,"Alvaro Soler","Eg4LUvUjUWI","IT","Ferrara",3177090,"IT","ITA108","ITP144"
"La Cintura",44.90924,8.61007,9750,"Alvaro Soler","Eg4LUvUjUWI","IT","Alessandria",3183299,"IT","ITA101","ITP115"
"La Cintura",45.07049,7.68682,517104,"Alvaro Soler","Eg4LUvUjUWI","IT","Turin",3165524,"IT","ITA101","ITP110"
"La Cintura",45.13325,10.02129,14364,"Alvaro Soler","Eg4LUvUjUWI","IT","Cremona",3177838,"IT","ITA103","ITP126"
"La Cintura",45.19205,9.15917,30143,"Alvaro Soler","Eg4LUvUjUWI","IT","Pavia",3171366,"IT","ITA103","ITP127"
"La Cintura",45.40797,11.88586,117169,"Alvaro Soler","Eg4LUvUjUWI","IT","Padova",3171728,"IT","ITA105","ITP135"
"La Cintura",45.4299,10.98444,144707,"Alvaro Soler","Eg4LUvUjUWI","IT","Verona",3164527,"IT","ITA105","ITP137"
"La Cintura",45.43713,12.33265,180997,"Alvaro Soler","Eg4LUvUjUWI","IT","Venice",3164603,"IT","ITA105","ITP130"
"La Cintura",45.44694,8.62118,70175,"Alvaro Soler","Eg4LUvUjUWI","IT","Novara",3172189,"IT","ITA101","ITP128"
"La Cintura",45.46427,9.18951,2141646,"Alvaro Soler","Eg4LUvUjUWI","IT","Milan",3173435,"IT","ITA103","ITP120"
"La Cintura",45.53558,10.21472,154732,"Alvaro Soler","Eg4LUvUjUWI","IT","Brescia",3181554,"IT","ITA103","ITP125"
"La Cintura",45.54672,11.5475,139315,"Alvaro Soler","Eg4LUvUjUWI","IT","Vicenza",3164419,"IT","ITA105","ITP136"
"La Cintura",45.58005,9.27246,106528,"Alvaro Soler","Eg4LUvUjUWI","IT","Monza",3172629,"IT","ITA103","ITP120"
"La Cintura",45.66673,12.2416,86805,"Alvaro Soler","Eg4LUvUjUWI","IT","Treviso",3165201,"IT","ITA105","ITP131"
"La Cintura",45.69601,9.66721,136788,"Alvaro Soler","Eg4LUvUjUWI","IT","Bergamo",3182164,"IT","ITA103","ITP124"
"La Cintura",45.80819,9.0832,62261,"Alvaro Soler","Eg4LUvUjUWI","IT","Como",3178229,"IT","ITA103","ITP122"
"La Cintura",46.01008,8.96004,45907,"Alvaro Soler","Eg4LUvUjUWI","CH","Lugano",2659836,"CH","CHA121","CHP169"
"La Cintura",46.06787,11.12108,39889,"Alvaro Soler","Eg4LUvUjUWI","IT","Trento",3165243,"IT","ITA104","ITP138"
"La Cintura",46.0693,13.23715,96284,"Alvaro Soler","Eg4LUvUjUWI","IT","Udine",3165072,"IT","ITA106","ITP133"
"La Cintura",46.49067,11.33982,64779,"Alvaro Soler","Eg4LUvUjUWI","IT","Bolzano",3181913,"IT","ITA104","ITP139"
"La La Laletta (Unplugged)",10.51667,76.21667,81568,"Prarthana Indrajith","OJCkO1w9JoY","IN","Trichūr",1254187,"IN","INA132","INP16800"
"La La Laletta (Unplugged)",10.77319,76.65366,22037,"Prarthana Indrajith","OJCkO1w9JoY","IN","Pālghāt",1260728,"IN","INA132","INP16780"
"La La Laletta (Unplugged)",11.04199,76.08154,4126,"Prarthana Indrajith","OJCkO1w9JoY","IN","Malappuram",1264154,"IN","INA132","INP16765"
"La La Laletta (Unplugged)",11.86752,75.35763,20225,"Prarthana Indrajith","OJCkO1w9JoY","IN","Kannur",1274987,"IN","INA132","INP16700"
"La La Laletta (Unplugged)",8.4855,76.94924,205970,"Prarthana Indrajith","OJCkO1w9JoY","IN","Thiruvananthapuram",1254163,"IN","INA132","INP16950"
"La La Laletta (Unplugged)",8.88113,76.58469,26392,"Prarthana Indrajith","OJCkO1w9JoY","IN","Kollam",1259091,"IN","INA132","INP16910"
"La La Laletta (Unplugged)",9.58692,76.52132,21907,"Prarthana Indrajith","OJCkO1w9JoY","IN","Kottayam",1265911,"IN","INA132","INP16860"
"La même (feat. Vianney)",43.3,-0.36667,45305,"Maître Gims","fC6YV65JJ6g","FR","Pau",2988358,"FR","FRA175",""
"La même (feat. Vianney)",43.48333,-1.48333,20277,"Maître Gims","fC6YV65JJ6g","FR","Bayonne",3034475,"FR","FRA175",""
"La même (feat. Vianney)",44.83248,-0.63381,33242,"Maître Gims","fC6YV65JJ6g","FR","Mérignac",2994393,"FR","FRA175",""
"La même (feat. Vianney)",44.84044,-0.5805,442984,"Maître Gims","fC6YV65JJ6g","FR","Bordeaux",3031582,"FR","FRA175",""
"La même (feat. Vianney)",45.77966,3.08628,126500,"Maître Gims","fC6YV65JJ6g","FR","Clermont-Ferrand",3024635,"FR","FRA184",""
"La même (feat. Vianney)",45.83153,1.25781,83815,"Maître Gims","fC6YV65JJ6g","FR","Limoges",2998286,"FR","FRA175",""
"La même (feat. Vianney)",46.16667,-1.15,69691,"Maître Gims","fC6YV65JJ6g","FR","La Rochelle",3006787,"FR","FRA175",""
"La même (feat. Vianney)",46.32313,-0.45877,60877,"Maître Gims","fC6YV65JJ6g","FR","Niort",2990355,"FR","FRA175",""
"La même (feat. Vianney)",46.58333,0.33333,80208,"Maître Gims","fC6YV65JJ6g","FR","Poitiers",2986495,"FR","FRA175",""
"La même (feat. Vianney)",46.66667,-1.43333,80236,"Maître Gims","fC6YV65JJ6g","FR","La Roche-sur-Yon",3006767,"FR","FRA152",""
"La même (feat. Vianney)",47.06667,-0.88333,37270,"Maître Gims","fC6YV65JJ6g","FR","Cholet",3025053,"FR","FRA152",""
"La même (feat. Vianney)",47.21725,-1.55336,192192,"Maître Gims","fC6YV65JJ6g","FR","Nantes",2990969,"FR","FRA152",""
"La même (feat. Vianney)",47.28333,-2.2,49765,"Maître Gims","fC6YV65JJ6g","FR","Saint-Nazaire",2977921,"FR","FRA152",""
"La même (feat. Vianney)",47.31667,5.01667,122252,"Maître Gims","fC6YV65JJ6g","FR","Dijon",3021372,"FR","FRA127",""
"La même (feat. Vianney)",47.38333,0.68333,89646,"Maître Gims","fC6YV65JJ6g","FR","Tours",2972191,"FR","FRA124",""
"La même (feat. Vianney)",47.46667,-0.55,113460,"Maître Gims","fC6YV65JJ6g","FR","Angers",3037656,"FR","FRA152",""
"La même (feat. Vianney)",47.66667,-2.75,52811,"Maître Gims","fC6YV65JJ6g","FR","Vannes",2970777,"FR","FRA153",""
"La même (feat. Vianney)",47.75,-3.36667,44935,"Maître Gims","fC6YV65JJ6g","FR","Lorient",2997577,"FR","FRA153",""
"La même (feat. Vianney)",48,-4.1,48170,"Maître Gims","fC6YV65JJ6g","FR","Quimper",2984701,"FR","FRA153",""
"La même (feat. Vianney)",48,0.2,110954,"Maître Gims","fC6YV65JJ6g","FR","Le Mans",3003603,"FR","FRA152",""
"La même (feat. Vianney)",48.06667,-0.76667,53837,"Maître Gims","fC6YV65JJ6g","FR","Laval",3005866,"FR","FRA152",""
"La même (feat. Vianney)",48.11198,-1.67429,216828,"Maître Gims","fC6YV65JJ6g","FR","Rennes",2983990,"FR","FRA153",""
"La même (feat. Vianney)",48.39029,-4.48628,81159,"Maître Gims","fC6YV65JJ6g","FR","Brest",3030300,"FR","FRA153",""
"La même (feat. Vianney)",48.44685,1.48925,54663,"Maître Gims","fC6YV65JJ6g","FR","Chartres",3026467,"FR","FRA124",""
"La même (feat. Vianney)",48.68439,6.18496,89258,"Maître Gims","fC6YV65JJ6g","FR","Nancy",2990999,"FR","FRA144",""
"La même (feat. Vianney)",48.8,2.13333,32908,"Maître Gims","fC6YV65JJ6g","FR","Versailles",2969679,"FR","FRA111",""
"La même (feat. Vianney)",48.82104,2.27718,7894,"Maître Gims","fC6YV65JJ6g","FR","Issy-les-Moulineaux",3012649,"FR","FRA111",""
"La même (feat. Vianney)",48.83333,2.25,14635,"Maître Gims","fC6YV65JJ6g","FR","Boulogne-Billancourt",3031137,"FR","FRA111",""
"La même (feat. Vianney)",48.8846,2.26965,10145,"Maître Gims","fC6YV65JJ6g","FR","Neuilly-sur-Seine",2990611,"FR","FRA111",""
"La même (feat. Vianney)",48.9,2.08333,20474,"Maître Gims","fC6YV65JJ6g","FR","Saint-Germain-en-Laye",2979783,"FR","FRA111",""
"La même (feat. Vianney)",48.95393,4.36724,27532,"Maître Gims","fC6YV65JJ6g","FR","Châlons-en-Champagne",3027487,"FR","FRA144",""
"La même (feat. Vianney)",49.18585,-0.35912,149519,"Maître Gims","fC6YV65JJ6g","FR","Caen",3029241,"FR","FRA128",""
"La même (feat. Vianney)",49.25,4.03333,142966,"Maître Gims","fC6YV65JJ6g","FR","Reims",2984114,"FR","FRA144",""
"La même (feat. Vianney)",49.36667,6.16667,38864,"Maître Gims","fC6YV65JJ6g","FR","Thionville",2972811,"FR","FRA144",""
"La même (feat. Vianney)",49.41794,2.82606,22147,"Maître Gims","fC6YV65JJ6g","FR","Compiègne",3024066,"FR","FRA132",""
"La même (feat. Vianney)",49.44313,1.09932,176219,"Maître Gims","fC6YV65JJ6g","FR","Rouen",2982652,"FR","FRA128",""
"La même (feat. Vianney)",49.76667,4.71667,40424,"Maître Gims","fC6YV65JJ6g","FR","Charleville-Mézières",3026613,"FR","FRA144",""
"La même (feat. Vianney)",49.84889,3.28757,67718,"Maître Gims","fC6YV65JJ6g","FR","Saint-Quentin",2977295,"FR","FRA132",""
"La même (feat. Vianney)",49.9,2.3,127389,"Maître Gims","fC6YV65JJ6g","FR","Amiens",3037854,"FR","FRA132",""
"La même (feat. Vianney)",50.29301,2.78186,55825,"Maître Gims","fC6YV65JJ6g","FR","Arras",3036784,"FR","FRA132",""
"La même (feat. Vianney)",50.41136,4.44448,135109,"Maître Gims","fC6YV65JJ6g","BE","Charleroi",2800481,"BE","BEA103000",""
"La même (feat. Vianney)",50.45413,3.95229,120504,"Maître Gims","fC6YV65JJ6g","BE","Mons",2790869,"BE","BEA103000",""
"La même (feat. Vianney)",50.4669,4.86746,85968,"Maître Gims","fC6YV65JJ6g","BE","Namur",2790471,"BE","BEA103000",""
"La même (feat. Vianney)",50.48657,4.18785,94296,"Maître Gims","fC6YV65JJ6g","BE","La Louvière",2793508,"BE","BEA103000",""
"La même (feat. Vianney)",50.58907,5.86241,44953,"Maître Gims","fC6YV65JJ6g","BE","Verviers",2784821,"BE","BEA103000",""
"La même (feat. Vianney)",50.60715,3.38932,36082,"Maître Gims","fC6YV65JJ6g","BE","Tournai",2785341,"BE","BEA103000",""
"La même (feat. Vianney)",50.63297,3.05858,433815,"Maître Gims","fC6YV65JJ6g","FR","Lille",2998324,"FR","FRA132",""
"La même (feat. Vianney)",50.63373,5.56749,368181,"Maître Gims","fC6YV65JJ6g","BE","Liège",2792413,"BE","BEA103000",""
"La même (feat. Vianney)",50.71667,1.61667,59496,"Maître Gims","fC6YV65JJ6g","FR","Boulogne-sur-Mer",3031133,"FR","FRA132",""
"La même (feat. Vianney)",50.85045,4.34878,492869,"Maître Gims","fC6YV65JJ6g","BE","Brussels",2800866,"BE","BEA101000",""
"La même (feat. Vianney)",50.95194,1.85635,61794,"Maître Gims","fC6YV65JJ6g","FR","Calais",3029162,"FR","FRA132",""
"La même (feat. Vianney)",51.03297,2.377,56764,"Maître Gims","fC6YV65JJ6g","FR","Dunkerque",3020686,"FR","FRA132",""
"Lagi Syantik",-5.14861,119.43194,686337,"Siti Badriah","Tet6_BlStEM","ID","Makassar",1622786,"ID","IDA173","IDP190"
"Lagi Syantik",1.4655,103.7578,482460,"Siti Badriah","Tet6_BlStEM","MY","Johor Bahru",1732752,"MY","MYA101","MYP180"
"Lagi Syantik",1.55,110.33333,724800,"Siti Badriah","Tet6_BlStEM","MY","Kuching",1735634,"MY","MYA113","MYP193"
"Lagi Syantik",2.196,102.2405,244262,"Siti Badriah","Tet6_BlStEM","MY","Malacca",1734759,"MY","MYA104","MYP175"
"Lagi Syantik",2.7297,101.9381,165740,"Siti Badriah","Tet6_BlStEM","MY","Seremban",1734810,"MY","MYA105","MYP170"
"Lagi Syantik",3.03333,101.45,160232,"Siti Badriah","Tet6_BlStEM","MY","Klang",1732905,"MY","MYA110","MYP141"
"Lagi Syantik",3.04384,101.58062,79305,"Siti Badriah","Tet6_BlStEM","MY","Subang Jaya",8504423,"MY","MYA110","MYP147"
"Lagi Syantik",3.08507,101.53281,301052,"Siti Badriah","Tet6_BlStEM","MY","Shah Alam",1732903,"MY","MYA110","MYP140"
"Lagi Syantik",3.10726,101.60671,308611,"Siti Badriah","Tet6_BlStEM","MY","Petaling Jaya",1735158,"MY","MYA110","MYP147"
"Lagi Syantik",3.1412,101.68653,13695252,"Siti Badriah","Tet6_BlStEM","MY","Kuala Lumpur",1735161,"MY","MYA114","MYP150"
"Lagi Syantik",3.58333,98.66667,2030092,"Siti Badriah","Tet6_BlStEM","ID","Medan",1214520,"ID","IDA112","IDP120"
"Lagi Syantik",3.8077,103.326,213598,"Siti Badriah","Tet6_BlStEM","MY","Kuantan",1735227,"MY","MYA106","MYP125"
"Lagi Syantik",4.39928,113.99163,86911,"Siti Badriah","Tet6_BlStEM","MY","Miri",1738050,"MY","MYA113","MYP198"
"Lagi Syantik",4.5841,101.0829,408203,"Siti Badriah","Tet6_BlStEM","MY","Ipoh",1734634,"MY","MYA108","MYP131"
"Lagi Syantik",4.89035,114.94006,217285,"Siti Badriah","Tet6_BlStEM","BN","Bandar Seri Begawan",1820906,"BN","BNA102","BNP1BS"
"Lagi Syantik",5.3302,103.1408,272221,"Siti Badriah","Tet6_BlStEM","MY","Kuala Terengganu",1734705,"MY","MYA111","MYP120"
"Lagi Syantik",5.647,100.48772,99709,"Siti Badriah","Tet6_BlStEM","MY","Sungai Petani",1735498,"MY","MYA102","MYP108"
"Lagi Syantik",5.9749,116.0724,719481,"Siti Badriah","Tet6_BlStEM","MY","Kota Kinabalu",1733432,"MY","MYA112","MYP188"
"Lagi Syantik",6.12104,100.36014,191485,"Siti Badriah","Tet6_BlStEM","MY","Alor Setar",1736309,"MY","MYA102","MYP105"
"Lagi Syantik",6.13328,102.2386,110415,"Siti Badriah","Tet6_BlStEM","MY","Kota Bharu",1736376,"MY","MYA103","MYP115"
"LARGADO ÀS TRAÇAS",-10.16745,-48.32766,259606,"Zé Neto & Cristiano","WcTRQXtXJPs","BR","Palmas",3474574,"BR","BRA117",""
"LARGADO ÀS TRAÇAS",-11.86417,-55.5025,106776,"Zé Neto & Cristiano","WcTRQXtXJPs","BR","Sinop",6318696,"BR","BRA151",""
"LARGADO ÀS TRAÇAS",-12.74056,-60.14583,31050,"Zé Neto & Cristiano","WcTRQXtXJPs","BR","Vilhena",3924679,"BR","BRA111",""
"LARGADO ÀS TRAÇAS",-15.59611,-56.09667,536896,"Zé Neto & Cristiano","WcTRQXtXJPs","BR","Cuiabá",3465038,"BR","BRA151",""
"LARGADO ÀS TRAÇAS",-15.64667,-56.1325,45501,"Zé Neto & Cristiano","WcTRQXtXJPs","BR","Várzea Grande",3445451,"BR","BRA151",""
"LARGADO ÀS TRAÇAS",-15.77972,-47.92972,2244467,"Zé Neto & Cristiano","WcTRQXtXJPs","BR","Brasília",3469058,"BR","BRA153",""
"LARGADO ÀS TRAÇAS",-16.735,-43.86167,221931,"Zé Neto & Cristiano","WcTRQXtXJPs","BR","Montes Claros",3456814,"BR","BRA131",""
"LARGADO ÀS TRAÇAS",-18.57889,-46.51806,219312,"Zé Neto & Cristiano","WcTRQXtXJPs","BR","Patos de Minas",3454783,"BR","BRA131",""
"LARGADO ÀS TRAÇAS",-18.85111,-41.94944,170040,"Zé Neto & Cristiano","WcTRQXtXJPs","BR","Governador Valadares",3462315,"BR","BRA131",""
"LARGADO ÀS TRAÇAS",-18.91861,-48.27722,714581,"Zé Neto & Cristiano","WcTRQXtXJPs","BR","Uberlândia",3445831,"BR","BRA131",""
"LARGADO ÀS TRAÇAS",-19.46583,-44.24667,132894,"Zé Neto & Cristiano","WcTRQXtXJPs","BR","Sete Lagoas",3447624,"BR","BRA131",""
"LARGADO ÀS TRAÇAS",-19.53944,-40.63056,42861,"Zé Neto & Cristiano","WcTRQXtXJPs","BR","Colatina",3465944,"BR","BRA132",""
"LARGADO ÀS TRAÇAS",-19.61917,-43.22694,79065,"Zé Neto & Cristiano","WcTRQXtXJPs","BR","Itabira",3460960,"BR","BRA131",""
"LARGADO ÀS TRAÇAS",-19.74833,-47.93194,206003,"Zé Neto & Cristiano","WcTRQXtXJPs","BR","Uberaba",3445839,"BR","BRA131",""
"LARGADO ÀS TRAÇAS",-19.93167,-44.05361,190587,"Zé Neto & Cristiano","WcTRQXtXJPs","BR","Contagem",3465624,"BR","BRA131",""
"LARGADO ÀS TRAÇAS",-19.96778,-44.19833,111388,"Zé Neto & Cristiano","WcTRQXtXJPs","BR","Betim",3470044,"BR","BRA131",""
"LARGADO ÀS TRAÇAS",-20.14355,-44.89065,124286,"Zé Neto & Cristiano","WcTRQXtXJPs","BR","Divinópolis",3464688,"BR","BRA131",""
"LARGADO ÀS TRAÇAS",-20.44278,-54.64639,628057,"Zé Neto & Cristiano","WcTRQXtXJPs","BR","Campo Grande",3467747,"BR","BRA150",""
"LARGADO ÀS TRAÇAS",-20.71889,-46.60972,65088,"Zé Neto & Cristiano","WcTRQXtXJPs","BR","Passos",3454847,"BR","BRA131",""
"LARGADO ÀS TRAÇAS",-20.81972,-49.37944,280598,"Zé Neto & Cristiano","WcTRQXtXJPs","BR","São José do Rio Preto",3448639,"BR","BRA135",""
"LARGADO ÀS TRAÇAS",-20.84889,-41.11278,78919,"Zé Neto & Cristiano","WcTRQXtXJPs","BR","Cachoeiro de Itapemirim",3468376,"BR","BRA132",""
"LARGADO ÀS TRAÇAS",-21.20889,-50.43278,111035,"Zé Neto & Cristiano","WcTRQXtXJPs","BR","Araçatuba",3471859,"BR","BRA135",""
"LARGADO ÀS TRAÇAS",-21.22583,-43.77361,81361,"Zé Neto & Cristiano","WcTRQXtXJPs","BR","Barbacena",3470858,"BR","BRA131",""
"LARGADO ÀS TRAÇAS",-21.28861,-50.34,78332,"Zé Neto & Cristiano","WcTRQXtXJPs","BR","Birigui",3469989,"BR","BRA135",""
"LARGADO ÀS TRAÇAS",-21.42917,-45.94722,50885,"Zé Neto & Cristiano","WcTRQXtXJPs","BR","Alfenas",3472603,"BR","BRA131",""
"LARGADO ÀS TRAÇAS",-22.41139,-47.56139,74303,"Zé Neto & Cristiano","WcTRQXtXJPs","BR","Rio Claro",3451234,"BR","BRA135",""
"LARGADO ÀS TRAÇAS",-22.42556,-45.45278,47987,"Zé Neto & Cristiano","WcTRQXtXJPs","BR","Itajubá",3460834,"BR","BRA131",""
"LARGADO ÀS TRAÇAS",-22.82194,-47.26694,175171,"Zé Neto & Cristiano","WcTRQXtXJPs","BR","Sumaré",3447259,"BR","BRA135",""
"LARGADO ÀS TRAÇAS",-22.85833,-47.22,145133,"Zé Neto & Cristiano","WcTRQXtXJPs","BR","Hortolândia",3461655,"BR","BRA135",""
"LARGADO ÀS TRAÇAS",-22.9527,-46.54418,70068,"Zé Neto & Cristiano","WcTRQXtXJPs","BR","Bragança Paulista",3469092,"BR","BRA135",""
"LARGADO ÀS TRAÇAS",-23.11694,-46.55028,48444,"Zé Neto & Cristiano","WcTRQXtXJPs","BR","Atibaia",3471335,"BR","BRA135",""
"LARGADO ÀS TRAÇAS",-23.18639,-46.88417,169694,"Zé Neto & Cristiano","WcTRQXtXJPs","BR","Jundiaí",3459462,"BR","BRA135",""
"LARGADO ÀS TRAÇAS",-23.26417,-47.29917,54134,"Zé Neto & Cristiano","WcTRQXtXJPs","BR","Itu",3460535,"BR","BRA135",""
"LARGADO ÀS TRAÇAS",-23.31028,-51.16278,440232,"Zé Neto & Cristiano","WcTRQXtXJPs","BR","Londrina",3458449,"BR","BRA141",""
"LARGADO ÀS TRAÇAS",-23.41944,-51.42444,39383,"Zé Neto & Cristiano","WcTRQXtXJPs","BR","Arapongas",3471798,"BR","BRA141",""
"LARGADO ÀS TRAÇAS",-23.42528,-51.93861,580929,"Zé Neto & Cristiano","WcTRQXtXJPs","BR","Maringá",3457671,"BR","BRA141",""
"LARGADO ÀS TRAÇAS",-23.51056,-46.87611,134569,"Zé Neto & Cristiano","WcTRQXtXJPs","BR","Barueri",3470353,"BR","BRA135",""
"LARGADO ÀS TRAÇAS",-23.76639,-53.325,79380,"Zé Neto & Cristiano","WcTRQXtXJPs","BR","Umuarama",3445782,"BR","BRA141",""
"LARGADO ÀS TRAÇAS",-24.04309,-52.37929,37244,"Zé Neto & Cristiano","WcTRQXtXJPs","BR","Campo Mourão",3467717,"BR","BRA141",""
"LARGADO ÀS TRAÇAS",-24.95583,-53.45528,279753,"Zé Neto & Cristiano","WcTRQXtXJPs","BR","Cascavel",3466779,"BR","BRA141",""
"LARGADO ÀS TRAÇAS",-25.39048,-51.46541,101367,"Zé Neto & Cristiano","WcTRQXtXJPs","BR","Guarapuava",3461879,"BR","BRA141",""
"LARGADO ÀS TRAÇAS",-26.08111,-53.055,50299,"Zé Neto & Cristiano","WcTRQXtXJPs","BR","Francisco Beltrão",3462996,"BR","BRA141",""
"LARGADO ÀS TRAÇAS",-26.22861,-52.67056,50977,"Zé Neto & Cristiano","WcTRQXtXJPs","BR","Pato Branco",3454818,"BR","BRA141",""
"LARGADO ÀS TRAÇAS",-26.77528,-51.015,53072,"Zé Neto & Cristiano","WcTRQXtXJPs","BR","Caçador",3468570,"BR","BRA142",""
"LARGADO ÀS TRAÇAS",-27.09639,-52.61833,154668,"Zé Neto & Cristiano","WcTRQXtXJPs","BR","Chapecó",3466296,"BR","BRA142",""
"LARGADO ÀS TRAÇAS",-27.09795,-48.91281,58551,"Zé Neto & Cristiano","WcTRQXtXJPs","BR","Brusque",3468879,"BR","BRA142",""
"LARGADO ÀS TRAÇAS",-27.23417,-52.02778,48153,"Zé Neto & Cristiano","WcTRQXtXJPs","BR","Concórdia",3465721,"BR","BRA142",""
"LARGADO ÀS TRAÇAS",-27.87083,-54.48139,52289,"Zé Neto & Cristiano","WcTRQXtXJPs","BR","Santa Rosa",3449822,"BR","BRA143",""
"LARGADO ÀS TRAÇAS",-29.75472,-57.08833,42932,"Zé Neto & Cristiano","WcTRQXtXJPs","BR","Uruguaiana",3445679,"BR","BRA143",""
"LARGADO ÀS TRAÇAS",-7.19111,-48.20722,70669,"Zé Neto & Cristiano","WcTRQXtXJPs","BR","Araguaína",3407357,"BR","BRA117",""
"LARGADO ÀS TRAÇAS",-8.76194,-63.90389,246016,"Zé Neto & Cristiano","WcTRQXtXJPs","BR","Porto Velho",3662762,"BR","BRA111",""
"LARGADO ÀS TRAÇAS",2.81972,-60.67333,135180,"Zé Neto & Cristiano","WcTRQXtXJPs","BR","Boa Vista",3664980,"BR","BRA114",""
"Laung Laachi",24.8608,67.0104,3314054,"Mannat Noor","YpkJO_GrCo0","PK","Karachi",1174872,"PK","PKA13","PKP175"
"Laung Laachi",25.33737,55.41206,150408,"Mannat Noor","YpkJO_GrCo0","AE","Sharjah",292672,"AE","AEA106",""
"Laung Laachi",25.41111,55.43504,56121,"Mannat Noor","YpkJO_GrCo0","AE","Ajman",292932,"AE","AEA102",""
"Laung Laachi",28.63576,77.22445,3488192,"Mannat Noor","YpkJO_GrCo0","IN","New Delhi",1261481,"IN","INA107","INP11100"
"Laung Laachi",28.65195,77.23149,17713038,"Mannat Noor","YpkJO_GrCo0","IN","Delhi",1273294,"IN","INA107","INP11100"
"Laung Laachi",30.73629,76.7884,7968167,"Mannat Noor","YpkJO_GrCo0","IN","Chandigarh",1274746,"IN","INA104","INP11600"
"Laung Laachi",30.91204,75.85379,476671,"Mannat Noor","YpkJO_GrCo0","IN","Ludhiāna",1264728,"IN","INA103","INP11410"
"Laung Laachi",31.10442,77.16662,1459253,"Mannat Noor","YpkJO_GrCo0","IN","Shimla",1256237,"IN","INA102","INP11710"
"Laung Laachi",31.32556,75.57917,154732,"Mannat Noor","YpkJO_GrCo0","IN","Jalandhar",1268782,"IN","INA103","INP11440"
"Laung Laachi",31.558,74.35071,6189358,"Mannat Noor","YpkJO_GrCo0","PK","Lahore",1172451,"PK","PKA12","PKP154"
"Laung Laachi",31.62234,74.87534,161531,"Mannat Noor","YpkJO_GrCo0","IN","Amritsar",1278710,"IN","INA103","INP11430"
"Laung Laachi",32.73569,74.86911,917445,"Mannat Noor","YpkJO_GrCo0","IN","Jammu",1269321,"IN","INA101","INP11800"
"Lemon",26.21667,127.68333,108483,"米津玄師","SX_ViT4Ra7k","JP","Naha",1856035,"JP","JPA147","JPP190"
"Lemon",31.56667,130.55,107538,"米津玄師","SX_ViT4Ra7k","JP","Kagoshima",1860827,"JP","JPA146","JPP189"
"Lemon",31.91667,131.41667,69822,"米津玄師","SX_ViT4Ra7k","JP","Miyazaki",1856717,"JP","JPA145","JPP188"
"Lemon",32.75,129.88333,74263,"米津玄師","SX_ViT4Ra7k","JP","Nagasaki",1856177,"JP","JPA142","JPP185"
"Lemon",32.80589,130.69181,140106,"米津玄師","SX_ViT4Ra7k","JP","Kumamoto",1858421,"JP","JPA143","JPP186"
"Lemon",33.23333,130.3,37754,"米津玄師","SX_ViT4Ra7k","JP","Saga",1853303,"JP","JPA141","JPP184"
"Lemon",33.23333,131.6,76896,"米津玄師","SX_ViT4Ra7k","JP","Ōita",1854487,"JP","JPA144","JPP187"
"Lemon",33.55,133.53333,62174,"米津玄師","SX_ViT4Ra7k","JP","Kochi",1859146,"JP","JPA139","JPP178"
"Lemon",33.6,130.41667,482559,"米津玄師","SX_ViT4Ra7k","JP","Fukuoka",1863967,"JP","JPA140","JPP181"
"Lemon",33.83916,132.76574,111806,"米津玄師","SX_ViT4Ra7k","JP","Matsuyama",1926099,"JP","JPA138","JPP179"
"Lemon",33.85181,130.85034,96532,"米津玄師","SX_ViT4Ra7k","JP","Kitakyushu",1859307,"JP","JPA140","JPP180"
"Lemon",34.06667,134.56667,58565,"米津玄師","SX_ViT4Ra7k","JP","Tokushima",1850158,"JP","JPA136","JPP177"
"Lemon",34.18333,131.46667,26887,"米津玄師","SX_ViT4Ra7k","JP","Yamaguchi",1848689,"JP","JPA135","JPP175"
"Lemon",34.23333,135.16667,73203,"米津玄師","SX_ViT4Ra7k","JP","Wakayama",1926004,"JP","JPA130","JPP164"
"Lemon",34.33333,134.05,76470,"米津玄師","SX_ViT4Ra7k","JP","Takamatsu",1851100,"JP","JPA137","JPP176"
"Lemon",34.4,132.45,197127,"米津玄師","SX_ViT4Ra7k","JP","Hiroshima",1862415,"JP","JPA134","JPP173"
"Lemon",34.41667,135.31667,21221,"米津玄師","SX_ViT4Ra7k","JP","Izumisano",1861091,"JP","JPA127","JPP159"
"Lemon",34.48333,133.36667,40176,"米津玄師","SX_ViT4Ra7k","JP","Fukuyama",1863917,"JP","JPA134","JPP172"
"Lemon",34.58333,133.76667,32572,"米津玄師","SX_ViT4Ra7k","JP","Kurashiki",1858311,"JP","JPA133","JPP171"
"Lemon",34.58333,135.46667,98967,"米津玄師","SX_ViT4Ra7k","JP","Sakai",1853195,"JP","JPA127","JPP159"
"Lemon",34.65,133.93333,139359,"米津玄師","SX_ViT4Ra7k","JP","Okayama",1854383,"JP","JPA133","JPP170"
"Lemon",34.68505,135.80485,62438,"米津玄師","SX_ViT4Ra7k","JP","Nara-shi",1855612,"JP","JPA129","JPP163"
"Lemon",34.6913,135.183,267861,"米津玄師","SX_ViT4Ra7k","JP","Kobe",1859171,"JP","JPA128","JPP165"
"Lemon",34.69374,135.50218,2633656,"米津玄師","SX_ViT4Ra7k","JP","Osaka",1853909,"JP","JPA127","JPP153"
"Lemon",34.7,137.73333,138260,"米津玄師","SX_ViT4Ra7k","JP","Hamamatsu",1863289,"JP","JPA122","JPP143"
"Lemon",34.71667,135.41667,48999,"米津玄師","SX_ViT4Ra7k","JP","Amagasaki",1865387,"JP","JPA128","JPP166"
"Lemon",34.73333,136.51667,34371,"米津玄師","SX_ViT4Ra7k","JP","Tsu",1849796,"JP","JPA124","JPP151"
"Lemon",34.76143,135.51567,36318,"米津玄師","SX_ViT4Ra7k","JP","Suita",1851483,"JP","JPA127","JPP156"
"Lemon",34.76943,134.82905,25787,"米津玄師","SX_ViT4Ra7k","JP","Kakogawachō-honmachi",1860704,"JP","JPA128","JPP167"
"Lemon",34.78244,135.46932,33361,"米津玄師","SX_ViT4Ra7k","JP","Toyonaka",1849837,"JP","JPA127","JPP156"
"Lemon",34.79936,135.35697,27383,"米津玄師","SX_ViT4Ra7k","JP","Takarazuka",1851012,"JP","JPA128","JPP166"
"Lemon",34.81352,135.64914,46824,"米津玄師","SX_ViT4Ra7k","JP","Hirakata",1862540,"JP","JPA127","JPP157"
"Lemon",34.81667,134.7,64509,"米津玄師","SX_ViT4Ra7k","JP","Himeji",1862627,"JP","JPA128","JPP167"
"Lemon",34.84833,135.61678,40315,"米津玄師","SX_ViT4Ra7k","JP","Takatsuki",1850910,"JP","JPA127","JPP156"
"Lemon",34.96667,136.61667,59113,"米津玄師","SX_ViT4Ra7k","JP","Yokkaichi",1848373,"JP","JPA124","JPP151"
"Lemon",34.98333,138.38333,92293,"米津玄師","SX_ViT4Ra7k","JP","Shizuoka",1851717,"JP","JPA122","JPP142"
"Lemon",35,135.86667,62383,"米津玄師","SX_ViT4Ra7k","JP","Ōtsu",1853574,"JP","JPA125","JPP152"
"Lemon",35.01667,135.96667,19997,"米津玄師","SX_ViT4Ra7k","JP","Kusatsu",1858067,"JP","JPA125","JPP152"
"Lemon",35.02107,135.75385,304620,"米津玄師","SX_ViT4Ra7k","JP","Kyoto",1857910,"JP","JPA126","JPP160"
"Lemon",35.08333,137.15,50107,"米津玄師","SX_ViT4Ra7k","JP","Toyota",1849814,"JP","JPA123","JPP147"
"Lemon",35.18147,136.90641,876765,"米津玄師","SX_ViT4Ra7k","JP","Nagoya",1856057,"JP","JPA123","JPP146"
"Lemon",35.28361,139.66722,27521,"米津玄師","SX_ViT4Ra7k","JP","Yokosuka",1848313,"JP","JPA114","JPP123"
"Lemon",35.34926,139.47666,33964,"米津玄師","SX_ViT4Ra7k","JP","Fujisawa",1864092,"JP","JPA114","JPP125"
"Lemon",35.42291,136.76039,96769,"米津玄師","SX_ViT4Ra7k","JP","Gifu-shi",1863641,"JP","JPA121","JPP150"
"Lemon",35.43333,139.65,1679224,"米津玄師","SX_ViT4Ra7k","JP","Yokohama",1848354,"JP","JPA114","JPP123"
"Lemon",35.48333,133.05,32070,"米津玄師","SX_ViT4Ra7k","JP","Matsue",1857550,"JP","JPA132","JPP169"
"Lemon",35.5,134.23333,26965,"米津玄師","SX_ViT4Ra7k","JP","Tottori",1849892,"JP","JPA131","JPP168"
"Lemon",35.52056,139.71722,142908,"米津玄師","SX_ViT4Ra7k","JP","Kawasaki",1859642,"JP","JPA114","JPP121"
"Lemon",35.6,140.11667,198498,"米津玄師","SX_ViT4Ra7k","JP","Chiba",2113015,"JP","JPA112","JPP126"
"Lemon",35.65583,139.32389,66948,"米津玄師","SX_ViT4Ra7k","JP","Hachiōji",1863440,"JP","JPA113","JPP119"
"Lemon",35.66667,138.56667,48160,"米津玄師","SX_ViT4Ra7k","JP","Kōfu",1859100,"JP","JPA119","JPP140"
"Lemon",35.77995,139.90144,45079,"米津玄師","SX_ViT4Ra7k","JP","Matsudo",1857553,"JP","JPA112","JPP127"
"Lemon",35.79916,139.46903,30250,"米津玄師","SX_ViT4Ra7k","JP","Tokorozawa",1850181,"JP","JPA111","JPP135"
"Lemon",35.80521,139.71072,72733,"米津玄師","SX_ViT4Ra7k","JP","Kawaguchi",1859730,"JP","JPA111","JPP133"
"Lemon",35.86224,139.97732,51881,"米津玄師","SX_ViT4Ra7k","JP","Kashiwa",1859924,"JP","JPA112","JPP127"
"Lemon",35.89035,139.78916,37831,"米津玄師","SX_ViT4Ra7k","JP","Koshigaya",1858729,"JP","JPA111","JPP134"
"Lemon",35.90807,139.65657,294999,"米津玄師","SX_ViT4Ra7k","JP","Saitama",6940394,"JP","JPA111","JPP133"
"Lemon",35.90861,139.48528,37027,"米津玄師","SX_ViT4Ra7k","JP","Kawagoe",1859740,"JP","JPA111","JPP135"
"Lemon",36.06443,136.22257,44978,"米津玄師","SX_ViT4Ra7k","JP","Fukui-shi",1863985,"JP","JPA118","JPP191"
"Lemon",36.2,140.1,55165,"米津玄師","SX_ViT4Ra7k","JP","Tsukuba",2110683,"JP","JPA108","JPP130"
"Lemon",36.23333,137.96667,36821,"米津玄師","SX_ViT4Ra7k","JP","Matsumoto",1857519,"JP","JPA120","JPP139"
"Lemon",36.33333,139.01667,61411,"米津玄師","SX_ViT4Ra7k","JP","Takasaki",1851002,"JP","JPA110","JPP137"
"Lemon",36.35,140.45,55078,"米津玄師","SX_ViT4Ra7k","JP","Mito",2111901,"JP","JPA108","JPP131"
"Lemon",36.4,139.08333,51455,"米津玄師","SX_ViT4Ra7k","JP","Maebashi",1857843,"JP","JPA110","JPP137"
"Lemon",36.56667,139.88333,104165,"米津玄師","SX_ViT4Ra7k","JP","Utsunomiya",1849053,"JP","JPA109","JPP132"
"Lemon",36.6,136.61667,88384,"米津玄師","SX_ViT4Ra7k","JP","Kanazawa",1860243,"JP","JPA117","JPP192"
"Lemon",36.65,138.18333,68798,"米津玄師","SX_ViT4Ra7k","JP","Nagano",1856215,"JP","JPA120","JPP138"
"Lemon",36.7,137.21667,63938,"米津玄師","SX_ViT4Ra7k","JP","Toyama",1849876,"JP","JPA116","JPP193"
"Lemon",37.05,140.88333,34587,"米津玄師","SX_ViT4Ra7k","JP","Iwaki",2112539,"JP","JPA107","JPP197"
"Lemon",37.4,140.38333,58653,"米津玄師","SX_ViT4Ra7k","JP","Kōriyama",2112141,"JP","JPA107","JPP196"
"Lemon",37.75,140.46667,34817,"米津玄師","SX_ViT4Ra7k","JP","Fukushima",2112923,"JP","JPA107","JPP196"
