latitude,longitude,location_id,views,track_name,track_link,rank
15.35472,44.20667,0x1603dbd54684f731:0xa46b957a1482ac73,108707,Secret Love,https://www.youtube.com/watch?v=ykPmM7Me2fM,0
36.19257,44.01062,0x400722fe13443461:0x3e01d63391de79d1,188539,سسس,https://www.youtube.com/watch?v=xb06CqeSgCQ,0
35.56496,45.4329,0x40002c0536d143b1:0xf791750d4e215dea,105173,Gangnam Style,https://www.youtube.com/watch?v=9bZkp7q19f0,0
21.42664,39.82563,0x15c21b4ced818775:0x98ab2469cf70c9ce,262152,عيدية حرب,https://www.youtube.com/watch?v=UjDI5iFYhZg,0
21.54238,39.19797,0x15c3d01fb1137e59:0xe059579737b118db,8045354,عيدية حرب,https://www.youtube.com/watch?v=UjDI5iFYhZg,0
24.68773,46.72185,0x3e2f03890d489399:0xba974d1c98e79fd5,5552828,عيدية حرب,https://www.youtube.com/watch?v=UjDI5iFYhZg,0
24.46861,39.61417,0x15bdbe5197d220d5:0x2e54514fea3b08d9,177047,عيدية حرب,https://www.youtube.com/watch?v=UjDI5iFYhZg,0
35.69439,51.42151,0x3f8e00491ff3dcd9:0xf0b3697c567024bc,6014,Bari Bakh,https://www.youtube.com/watch?v=3zx7mEDq_gM,0
35.17531,33.3642,0x14de1767ca494d55:0x5b5ea49c0311c0a5,183811,Eteği Belinde,https://www.youtube.com/watch?v=vyXOEGyjQ0Q,0
34.68406,33.03794,0x14e73316ac02f49d:0xdaa97f957025b012,178575,Havana,https://www.youtube.com/watch?v=BQ0mxQXmLsk,0
34.92291,33.6233,0x14e082a16c40cb13:0x4fcbf0221371d0a5,37673,Havana,https://www.youtube.com/watch?v=BQ0mxQXmLsk,0
35.12054,33.93894,0x14dfc842da4c163d:0x29db03c5a5d3ce87,60204,İki Aşık,https://www.youtube.com/watch?v=ibwSWfbaW0I,0
39.20889,45.41222,0x40142e7307d10ea5:0xbcd74fc07d9ab2bd,45116,Vasif Azimov Derdimi Dinle 2017,https://www.youtube.com/watch?v=gYGuiuVgse4,0
-6.82349,39.26951,0x185c4bae169bd6f1:0x940f6b26a086a1dd,1161116,Waka,https://www.youtube.com/watch?v=q1iHgDTplfw,0
-3.36667,36.68333,0x18371c88f2387383:0xbc1907f7ec497152,6151,Love You Die,https://www.youtube.com/watch?v=ZjN4agWqTdc,0
33.5102,36.29128,0x1518e6dc413cc6a7:0x6b9f66ebd1e394f2,773659,العب يلا,https://www.youtube.com/watch?v=7YVydzZHU6U,0
-1.28333,36.81667,0x182f1172d84d49a7:0xf7cf0254b297924c,1226706,Melanin,https://www.youtube.com/watch?v=D8LFwC1nEpU,0
-1.94995,30.05885,0x19dca4258ed8e797:0xf32b36a5411d0bc8,96126,Slowly,https://www.youtube.com/watch?v=fAjArUewW48,0
39.36103,22.94248,0x14a76c60e1af6cf1:0x5d6e8e390219aae2,42745,An Me Dis Na Kleo,https://www.youtube.com/watch?v=Ki2UJC0le9k,0
39.55493,21.76837,0x1359193322772e5f:0x400bd2ce2b99fc0,20329,Gia Kapio Logo,https://www.youtube.com/watch?v=KGcsHa4Riig,0
37.94745,23.63708,0x14a1bbebb7ac3147:0xd820da95ff30fdf7,73013,Havana,https://www.youtube.com/watch?v=BQ0mxQXmLsk,0
38.24444,21.73444,0x135e3599a524ed2d:0x400bd2ce2b98ca0,46022,Gia Kapio Logo,https://www.youtube.com/watch?v=KGcsHa4Riig,0
38.0357,23.75733,0x14a1a277700a9d9f:0xea3bd55aebb76ed1,29427,Havana,https://www.youtube.com/watch?v=BQ0mxQXmLsk,0
39.63689,22.41761,0x1358885c595d47a1:0x400bd2ce2b99c30,69333,An Me Dis Na Kleo,https://www.youtube.com/watch?v=Ki2UJC0le9k,0
35.51124,24.02921,0x149c7dbee0cf3f3b:0x94b3557d79cd2ca8,50201,Gia Kapio Logo,https://www.youtube.com/watch?v=KGcsHa4Riig,0
38.46354,23.60284,0x14a1164bc2d6174b:0x380b0a5f7b34c904,36871,Gia Kapio Logo,https://www.youtube.com/watch?v=KGcsHa4Riig,0
37.03913,22.11265,0x1361b099624b7829:0xfc1f95ed71625f9e,63111,Gia Kapio Logo,https://www.youtube.com/watch?v=KGcsHa4Riig,0
37.91033,23.72361,0x14a1be78a8d1aa9d:0xa00bd2f61afa8c0,33838,Havana,https://www.youtube.com/watch?v=BQ0mxQXmLsk,0
39.66486,20.85189,0x135be9a2defedd67:0x400bd2ce2b997c0,41763,Gia Kapio Logo,https://www.youtube.com/watch?v=KGcsHa4Riig,0
37.97945,23.71622,0x14a1bd1f067043f1:0x2736354576668ddd,1690645,Havana,https://www.youtube.com/watch?v=BQ0mxQXmLsk,0
38.05,23.8,0x14a198d9f10aa437:0x6a583832f5b336f,46926,Havana,https://www.youtube.com/watch?v=BQ0mxQXmLsk,0
38.08333,23.73333,0x14a1a004d984a173:0x400bd2ce2b97bc0,38768,Havana,https://www.youtube.com/watch?v=BQ0mxQXmLsk,0
31.76904,35.21633,0x1502d7d634c1fc4b:0xd96f623e456ee1cb,217811,הכל לטובה,https://www.youtube.com/watch?v=ZOYQ94ylTGY,0
29.33278,48.02861,0x3fcf9c8ce8db396d:0x6747a130779f0bc0,18747,Havana,https://www.youtube.com/watch?v=BQ0mxQXmLsk,0
29.36972,47.97833,0x3fcf9c83ce455983:0xc3ebaef5af09b90e,1139256,عيدية حرب,https://www.youtube.com/watch?v=UjDI5iFYhZg,0
23.58413,58.40778,0x3e91ffa8879aafc9:0xdb53876d0d79a72c,612388,عيدية حرب,https://www.youtube.com/watch?v=UjDI5iFYhZg,0
25.28545,51.53096,0x3e45c534ffdce87f:0x44d9319f78cfd4b1,652072,Perfect,https://www.youtube.com/watch?v=2Vv-BfVoq4g,1
26.22787,50.58565,0x3e49af722776a62d:0x8b6738a6070f60c2,419238,سلطان العماني - الله يوفقك (حصريا) 2017 Sultan Alomane - ِAla Yofkak,https://www.youtube.com/watch?v=4sNwWZEYAtk,0
25.78953,55.9432,0x3ef676ad264b24c1:0x10f6affe1a9e78a3,75997,عيدية حرب,https://www.youtube.com/watch?v=UjDI5iFYhZg,0
25.0657,55.17128,0x3e5f43496ad9c645:0xbde66e5084295162,1612143,Perfect,https://www.youtube.com/watch?v=2Vv-BfVoq4g,0
25.33737,55.41206,0x3e5f5f5fede7964b:0x2a830aa19c1f6d89,426411,Entammede Jimikki Kammal,https://www.youtube.com/watch?v=FXiaIH49oAU,1
24.19167,55.76056,0x3e8ab145cbd5a049:0xf56f8cea5bf29f7f,189168,عيدية حرب,https://www.youtube.com/watch?v=UjDI5iFYhZg,0
25.41111,55.43504,0x3e5f5764dd8fbe79:0xcda090de6445a819,101763,Entammede Jimikki Kammal,https://www.youtube.com/watch?v=FXiaIH49oAU,1
24.46667,54.36667,0x3e5e440f723ef2b9:0xc7cc2e9341971108,580380,Perfect,https://www.youtube.com/watch?v=2Vv-BfVoq4g,0
32.08088,34.78057,0x151d4ca6193b7c1f:0xc1fb72a2c0963f90,3534454,הכל לטובה,https://www.youtube.com/watch?v=ZOYQ94ylTGY,0
31.97102,34.78939,0x1502b43827ab66ff:0x17bcc54a571a7ab8,69089,הכל לטובה,https://www.youtube.com/watch?v=ZOYQ94ylTGY,0
31.89421,34.81199,0x1502b70592bfe58f:0xeeadf8cb1758f957,45913,הכל לטובה,https://www.youtube.com/watch?v=ZOYQ94ylTGY,0
32.08227,34.81065,0x151d4c86e794e4ad:0x2d00bf3ee717526f,45571,הכל לטובה,https://www.youtube.com/watch?v=ZOYQ94ylTGY,0
32.08707,34.88747,0x151d3673a30753b9:0xcde0651f23c1443c,87749,הכל לטובה,https://www.youtube.com/watch?v=ZOYQ94ylTGY,0
32.33291,34.85992,0x151d400493c075d5:0x2cd995be543c3f22,68713,הכל לטובה,https://www.youtube.com/watch?v=ZOYQ94ylTGY,0
33.00892,35.09814,0x151dce1f090dac99:0x4cad9e4e66b0e416,25495,הכל לטובה,https://www.youtube.com/watch?v=ZOYQ94ylTGY,0
32.175,34.90694,0x151d39b32151955f:0x8e50c5f354fa376a,23180,הכל לטובה,https://www.youtube.com/watch?v=ZOYQ94ylTGY,0
32.01034,34.77918,0x1502b4bb0c33bf39:0xfbdd79640525e72d,55448,הכל לטובה,https://www.youtube.com/watch?v=ZOYQ94ylTGY,0
32.16627,34.82536,0x151d480dc125e56f:0x46a023cb144ac1c4,37622,Havana,https://www.youtube.com/watch?v=BQ0mxQXmLsk,0
32.81841,34.9885,0x151dba4c750de845:0xc35d23982a81529a,88501,Havana,https://www.youtube.com/watch?v=BQ0mxQXmLsk,0
32.44192,34.9039,0x151d124252d125bb:0x3abe13857b8fe43d,26609,הכל לטובה,https://www.youtube.com/watch?v=ZOYQ94ylTGY,0
31.25181,34.7913,0x15026640029f8777:0x8dee8012deb5dd8,88490,הכל לטובה,https://www.youtube.com/watch?v=ZOYQ94ylTGY,0
31.66926,34.57149,0x15029c5141685e73:0xeb72211d3092dc0f,22216,הכל לטובה,https://www.youtube.com/watch?v=ZOYQ94ylTGY,0
31.79213,34.64966,0x1502a3117547e4ef:0x97806d1a5a86632f,45867,הכל לטובה,https://www.youtube.com/watch?v=ZOYQ94ylTGY,0
39.82,34.80444,0x408070bcab35d055:0x2d85441338972669,120645,İki Aşık,https://www.youtube.com/watch?v=ibwSWfbaW0I,0
38.49457,43.38323,0x40127078fe8f307d:0x8c905e2790e2dabb,257005,Eteği Belinde,https://www.youtube.com/watch?v=vyXOEGyjQ0Q,0
38.67351,29.4058,0x14c87fd9700e8031:0xe9e1c5b72df9bba3,191143,İki Aşık,https://www.youtube.com/watch?v=ibwSWfbaW0I,0
37.16708,38.79392,0x153471ebdc619091:0x8e788516b709466c,372373,Eteği Belinde,https://www.youtube.com/watch?v=vyXOEGyjQ0Q,0
39.74833,37.01611,0x407eab6a6050ec65:0x83f714044652ea9b,263837,İki Aşık,https://www.youtube.com/watch?v=ibwSWfbaW0I,0
38.48258,28.14774,0x14b85a582c507119:0xe33e87bea754060b,142229,İki Aşık,https://www.youtube.com/watch?v=ibwSWfbaW0I,0
37.07417,36.24778,0x152f21ccb453a189:0x2abadcd26e05d60c,128927,Eteği Belinde,https://www.youtube.com/watch?v=vyXOEGyjQ0Q,0
37.96583,34.67935,0x1529e7e65b22ed61:0xe646b6c110f0ab6f,132996,İki Aşık,https://www.youtube.com/watch?v=ibwSWfbaW0I,0
38.625,34.71222,0x152a6e4566fe8181:0x59d53f1bc98af56c,130861,İki Aşık,https://www.youtube.com/watch?v=ibwSWfbaW0I,0
37.21807,28.3665,0x14bf7209b16cf6bf:0xfba529d61c7ac1c1,30519,İki Aşık,https://www.youtube.com/watch?v=ibwSWfbaW0I,0
38.61202,27.42647,0x14b99c89950e89d5:0x88eb6a1c97102924,385965,İki Aşık,https://www.youtube.com/watch?v=ibwSWfbaW0I,0
38.35018,38.31667,0x407636e4923c4bad:0xa053ec48de5f481b,278248,Eteği Belinde,https://www.youtube.com/watch?v=vyXOEGyjQ0Q,0
39.42417,29.98333,0x14c948171562e423:0x7357c4e7ede1b93c,253997,İki Aşık,https://www.youtube.com/watch?v=ibwSWfbaW0I,0
37.87135,32.48464,0x14d08568d615f745:0x240dd0fc08060967,1058355,İki Aşık,https://www.youtube.com/watch?v=ibwSWfbaW0I,0
39.14583,34.16389,0x14d572c090d21383:0x6dd29199261c3d06,84255,İki Aşık,https://www.youtube.com/watch?v=ibwSWfbaW0I,0
39.84528,33.50639,0x4081df188742e1bb:0x4f1a4dd9f400e5bc,123189,İki Aşık,https://www.youtube.com/watch?v=ibwSWfbaW0I,0
38.73222,35.48528,0x152b0e1d3fa4a74f:0x84bd8c4d5a4c2da7,718236,İki Aşık,https://www.youtube.com/watch?v=ibwSWfbaW0I,0
37.18111,33.215,0x14d98d6780ebefeb:0x31bde2e87bae26bc,119415,İki Aşık,https://www.youtube.com/watch?v=ibwSWfbaW0I,0
39.71944,43.05139,0x406c83de56e74c4d:0xc8eefc78f21ef332,76766,Eteği Belinde,https://www.youtube.com/watch?v=vyXOEGyjQ0Q,0
37.5847,36.92641,0x152dddbc3d7a1a47:0x8e9bdcea1291516f,298974,Eteği Belinde,https://www.youtube.com/watch?v=vyXOEGyjQ0Q,0
38.41273,27.13838,0x14bbd862a762cacd:0x628cbba1a59ce8fe,3865034,Eteği Belinde,https://www.youtube.com/watch?v=vyXOEGyjQ0Q,0
37.76444,30.55222,0x14c5b5df2a75a3bf:0x7ccba328f3ebe248,353633,İki Aşık,https://www.youtube.com/watch?v=ibwSWfbaW0I,0
36.58718,36.17347,0x152f592d49f10bcd:0x71627fb2e950ada4,221218,Eteği Belinde,https://www.youtube.com/watch?v=vyXOEGyjQ0Q,0
37.05944,37.3825,0x1531e6b4f7f18c2f:0xc02e8b35116baad0,890298,Eteği Belinde,https://www.youtube.com/watch?v=vyXOEGyjQ0Q,0
36.64038,29.12758,0x14c0439b0db6b13b:0x87150704244f70d7,173943,İki Aşık,https://www.youtube.com/watch?v=ibwSWfbaW0I,0
39.77667,30.52056,0x14cc3e08220c0e5f:0xbc89395938049a08,651435,İki Aşık,https://www.youtube.com/watch?v=ibwSWfbaW0I,0
39.90861,41.27694,0x406e5f28a5eb94f1:0x10e3fd56abbfb86,814647,İki Aşık,https://www.youtube.com/watch?v=ibwSWfbaW0I,0
39.73919,39.49015,0x40700cc900531deb:0x1fb8de6e1302e7a9,93888,Eteği Belinde,https://www.youtube.com/watch?v=vyXOEGyjQ0Q,0
38.67431,39.22321,0x4076c06c76eaf697:0x12dab4118a3d2f39,221044,Eteği Belinde,https://www.youtube.com/watch?v=vyXOEGyjQ0Q,0
37.91363,40.21721,0x40751fa80abac46b:0x53070c279310852c,764831,Eteği Belinde,https://www.youtube.com/watch?v=vyXOEGyjQ0Q,0
37.77417,29.0875,0x14c73fb1353a6a69:0x2e3363fee62068ae,680134,İki Aşık,https://www.youtube.com/watch?v=ibwSWfbaW0I,0
37.72028,30.29083,0x14c42c1038052bdd:0x7f33fbee17399f8b,21084,İki Aşık,https://www.youtube.com/watch?v=ibwSWfbaW0I,0
37.88738,41.13221,0x400b46fc6e630ad3:0x8fba52e2fe61162e,180620,Eteği Belinde,https://www.youtube.com/watch?v=vyXOEGyjQ0Q,0
39.64917,27.88611,0x14b7003b8bbb36d7:0xea6e0949f8f4ea6a,459941,İki Aşık,https://www.youtube.com/watch?v=ibwSWfbaW0I,0
37.84501,27.83963,0x14b92b6627dced2f:0xcca12f1bcb3b322e,385279,İki Aşık,https://www.youtube.com/watch?v=ibwSWfbaW0I,0
36.90812,30.69556,0x14c39aaeddadadc1:0x95c69f73f9e32e33,1637263,İki Aşık,https://www.youtube.com/watch?v=ibwSWfbaW0I,0
39.91987,32.85427,0x14d347d520732db1:0xbdc57b0c0842b8d,5870743,Eteği Belinde,https://www.youtube.com/watch?v=vyXOEGyjQ0Q,0
36.54375,31.99982,0x14dca27b822cd5fb:0xd160c1c8b3dc170b,43632,İki Aşık,https://www.youtube.com/watch?v=ibwSWfbaW0I,0
38.37255,34.02537,0x14d670e51a8b0b7f:0xe621759e8824b0bd,148674,İki Aşık,https://www.youtube.com/watch?v=ibwSWfbaW0I,0
38.75667,30.54333,0x14cf3d7e15ecd85b:0xf0c901fb9ada4b16,252562,İki Aşık,https://www.youtube.com/watch?v=ibwSWfbaW0I,0
37.76441,38.27629,0x15331388daa5b1ab:0xdb1596e4c5f547e,134575,Eteği Belinde,https://www.youtube.com/watch?v=vyXOEGyjQ0Q,0
9.02497,38.74689,0x164b85cef5ab402d:0x8467b6b037a24d49,58087,Eski Leyew,https://www.youtube.com/watch?v=ZUnB4p1xY6s,0
15.55177,32.53241,0x168e8fde9837cabf:0x191f55de7e67db40,84955,Shape of You,https://www.youtube.com/watch?v=JGwWNGJdvx8,0
57.38988,21.57288,0x46f1c896664248d9:0x400cfcd68f2fea0,19598,Perfect,https://www.youtube.com/watch?v=2Vv-BfVoq4g,0
56.946,24.10589,0x46eecfb0e5073ded:0x400cfcd68f2fe30,475433,Perfect,https://www.youtube.com/watch?v=2Vv-BfVoq4g,0
56.51667,21.01667,0x46faa7d278ba642d:0x400cfcd68f2fe80,26506,Perfect,https://www.youtube.com/watch?v=2Vv-BfVoq4g,0
56.65,23.71278,0x46ef254b6eed168f:0x400cfcd68f31c60,36953,Perfect,https://www.youtube.com/watch?v=2Vv-BfVoq4g,0
55.88333,26.53333,0x46c29430ff01c9db:0x400cfcd68f307f0,19103,Тролль,https://www.youtube.com/watch?v=q--5Ht49vNY,0
56.63877,47.89078,0x415994cee334e033:0xdaebce5764135883,48488,Розовое вино,https://www.youtube.com/watch?v=wOBnq0Ewz5k,0
57.62987,39.87368,0x46b291a051ecb939:0x59c9e61644948545,80764,Розовое вино,https://www.youtube.com/watch?v=wOBnq0Ewz5k,0
51.67204,39.1843,0x413b2f5ce874e813:0x48d94c0efba762bd,196176,Розовое вино,https://www.youtube.com/watch?v=wOBnq0Ewz5k,0
48.78583,44.77973,0x411ab2bf22a2389b:0xe66380a6f53c1448,29725,Тролль,https://www.youtube.com/watch?v=q--5Ht49vNY,0
59.2239,39.88398,0x46ae9822674da109:0x6dbb1a40acc55b31,58560,Розовое вино,https://www.youtube.com/watch?v=wOBnq0Ewz5k,0
48.71939,44.50183,0x41053375b85b7667:0x880d179cce57da41,156986,Тролль,https://www.youtube.com/watch?v=q--5Ht49vNY,0
56.13655,40.39658,0x414c796abd574431:0xa5192737744ddb02,67774,Розовое вино,https://www.youtube.com/watch?v=wOBnq0Ewz5k,0
43.03667,44.66778,0x405aa4443c0a6691:0x13c56a16c945d6cf,67391,Тролль,https://www.youtube.com/watch?v=q--5Ht49vNY,0
54.32824,48.38657,0x415d365f8f42b3f5:0x2152ff0847091be4,88334,Тролль,https://www.youtube.com/watch?v=q--5Ht49vNY,0
63.56705,53.68348,0x4474d645a80dbab7:0x282e62d179490286,20976,Тролль,https://www.youtube.com/watch?v=q--5Ht49vNY,0
54.74306,55.96779,0x43d93a259216bce1:0xaceec0921eda92cc,566890,Розовое вино,https://www.youtube.com/watch?v=wOBnq0Ewz5k,0
56.85836,35.90057,0x46b687ab1d6c94f3:0xf42b3a95f433bc9c,61306,Тролль,https://www.youtube.com/watch?v=q--5Ht49vNY,0
54.19609,37.61822,0x41343f84ed31c1fd:0xa3a7e25d4ca39145,100127,Тролль,https://www.youtube.com/watch?v=q--5Ht49vNY,0
53.5303,49.3461,0x416878e800ccce15:0xf556927b10d096a,91034,Тролль,https://www.youtube.com/watch?v=q--5Ht49vNY,0
52.73169,41.44326,0x4139143b9cfe011d:0x84dab8189e36a7ff,45752,Розовое вино,https://www.youtube.com/watch?v=wOBnq0Ewz5k,0
47.23617,38.89688,0x40e1578d09bb748d:0x111e11a86812b325,23209,Тролль,https://www.youtube.com/watch?v=q--5Ht49vNY,0
61.67642,50.80994,0x4409d5869da690ff:0x587b38d534ce298a,49016,Розовое вино,https://www.youtube.com/watch?v=wOBnq0Ewz5k,0
53.62462,55.95015,0x43d81034af987c9b:0x21a735497b8fc4c2,37444,Тролль,https://www.youtube.com/watch?v=q--5Ht49vNY,0
45.0428,41.9734,0x40f9a9d63fd5d9f7:0x29c820a41bb5bcf2,133339,Тролль,https://www.youtube.com/watch?v=q--5Ht49vNY,0
54.7818,32.0401,0x46ce543c05e6573b:0xdb294e72f01cc4bd,55127,Розовое вино,https://www.youtube.com/watch?v=wOBnq0Ewz5k,0
51.54056,46.00861,0x4114c709059bbc41:0x1c685156439035f6,172496,Тролль,https://www.youtube.com/watch?v=q--5Ht49vNY,0
54.1838,45.1749,0x4144080b567650ad:0x69a0cfaaa1416941,59498,Тролль,https://www.youtube.com/watch?v=q--5Ht49vNY,0
59.93863,30.31413,0x4696378cc74a65ed:0x6dc7673fab848eff,727539,Розовое вино,https://www.youtube.com/watch?v=wOBnq0Ewz5k,0
53.20007,50.15,0x416618e22bd879d3:0xba95cda9bb3a030b,165296,Розовое вино,https://www.youtube.com/watch?v=wOBnq0Ewz5k,0
47.23135,39.72328,0x40e3c777c3b4b6ef:0x8248b451e48b4d04,236017,Тролль,https://www.youtube.com/watch?v=q--5Ht49vNY,0
44.04861,43.05944,0x4057762a50e3030d:0x5dad6f4a0bf09184,92699,Тролль,https://www.youtube.com/watch?v=q--5Ht49vNY,0
55.42419,37.55472,0x414aa84ee4fedc35:0x1461371650e8e0bd,54411,Тролль,https://www.youtube.com/watch?v=q--5Ht49vNY,0
61.78491,34.34691,0x46a1ec3dd7bf1fe7:0xe49db0d89a0485d4,40909,Розовое вино,https://www.youtube.com/watch?v=wOBnq0Ewz5k,0
58.01046,56.25017,0x43e8c6e1d886f20b:0x9b4aca02b87a8a0e,205369,Розовое вино,https://www.youtube.com/watch?v=wOBnq0Ewz5k,0
53.20066,45.00464,0x41410062a40af0d1:0xbaed6ceca1cba901,83692,Розовое вино,https://www.youtube.com/watch?v=wOBnq0Ewz5k,0
51.7727,55.0988,0x417bf7b0995fd495:0xdbd8a07200d6a3,109982,Тролль,https://www.youtube.com/watch?v=q--5Ht49vNY,0
52.96508,36.07849,0x41321a0978f19af3:0xb0b9955b0cbf9424,48011,Розовое вино,https://www.youtube.com/watch?v=wOBnq0Ewz5k,0
55.80672,38.96178,0x414b1c7e8e89e903:0x2489581359276ac7,13333,Тролль,https://www.youtube.com/watch?v=q--5Ht49vNY,0
55.67798,37.27773,0x46b550502b34ef23:0x58c4a53a129da3fe,29764,Розовое вино,https://www.youtube.com/watch?v=wOBnq0Ewz5k,0
56.32867,44.00205,0x4151d5f9ee033251:0x28d3c0cf849657aa,275237,Розовое вино,https://www.youtube.com/watch?v=wOBnq0Ewz5k,0
43.49806,43.61889,0x405a068666a62fc3:0xcf8a07cdf2651d05,57665,Тролль,https://www.youtube.com/watch?v=q--5Ht49vNY,0
55.72545,52.41122,0x43e01e3e87f7dc75:0xa03e7192c4e35810,94592,Тролль,https://www.youtube.com/watch?v=q--5Ht49vNY,0
55.91163,37.73076,0x46b531bd72afcefd:0xa39146299e2cb988,38598,Розовое вино,https://www.youtube.com/watch?v=wOBnq0Ewz5k,0
68.97917,33.09251,0x44341030ed0c22d5:0x98c6ba30cbc321a5,55040,Тролль,https://www.youtube.com/watch?v=q--5Ht49vNY,0
42.97638,47.50236,0x404d43d957c36b2f:0xa4f5323eaf6c112d,157066,Тролль,https://www.youtube.com/watch?v=q--5Ht49vNY,0
53.41861,59.04722,0x43d12593a4f92e4f:0xdcb8574965828068,44077,Тролль,https://www.youtube.com/watch?v=q--5Ht49vNY,0
55.67719,37.89322,0x414ab6250b151c5d:0xcf1852429fc5dd65,28064,Розовое вино,https://www.youtube.com/watch?v=wOBnq0Ewz5k,0
52.60311,39.57076,0x413a148c254aa519:0x59f5f4f6bdea4dca,80708,Тролль,https://www.youtube.com/watch?v=q--5Ht49vNY,0
51.73733,36.18735,0x412f0375da12791b:0x9788ae489cd5e746,58304,Тролль,https://www.youtube.com/watch?v=q--5Ht49vNY,0
45.04484,38.97603,0x40f04564714535b3:0xf720794f56c4beb6,698885,Тролль,https://www.youtube.com/watch?v=q--5Ht49vNY,0
57.76647,40.92686,0x46ad4ff11964c7bb:0xe547e104bd9b4c6e,50478,Розовое вино,https://www.youtube.com/watch?v=wOBnq0Ewz5k,0
58.59665,49.66007,0x43fcf680a90e78c1:0x6b282355c23fe067,91941,Розовое вино,https://www.youtube.com/watch?v=wOBnq0Ewz5k,0
55.89704,37.42969,0x46b53f22183e9dc1:0x6085448e92a5b6dd,32061,Розовое вино,https://www.youtube.com/watch?v=wOBnq0Ewz5k,0
55.78874,49.12214,0x415ead2b7caccd99:0x7fcb77b9b5ad8c65,238414,Розовое вино,https://www.youtube.com/watch?v=wOBnq0Ewz5k,0
54.5293,36.27542,0x4134b9fc78b93039:0xcb584437cde02e42,136045,Тролль,https://www.youtube.com/watch?v=q--5Ht49vNY,0
55.91417,37.82556,0x46b52d8cea784673:0x6d7dc3b16fb62c63,23528,Розовое вино,https://www.youtube.com/watch?v=wOBnq0Ewz5k,0
54.70649,20.51095,0x46e33d8d4b7c21a9:0x5050960016126ed3,86328,Тролль,https://www.youtube.com/watch?v=q--5Ht49vNY,0
56.84976,53.20448,0x43e13920148e2bb1:0xa7e1eb248097e152,113012,Розовое вино,https://www.youtube.com/watch?v=wOBnq0Ewz5k,0
56.99719,40.97139,0x414d1423afe9a7c3:0xe25ab9c4547ae2e,65707,Розовое вино,https://www.youtube.com/watch?v=wOBnq0Ewz5k,0
43.31195,45.68895,0x4051d31d2a73eb29:0xbebeb24edaacd29d,75575,Тролль,https://www.youtube.com/watch?v=q--5Ht49vNY,0
44.22333,42.05778,0x4058005955d093f9:0x4b336291caa7e0ab,25875,Тролль,https://www.youtube.com/watch?v=q--5Ht49vNY,0
59.13333,37.9,0x46afb638c10b742d:0xb9c61faf8991226,32063,Розовое вино,https://www.youtube.com/watch?v=wOBnq0Ewz5k,0
56.13222,47.25194,0x415a37f37d16e915:0x7174067761ec11d9,94223,Розовое вино,https://www.youtube.com/watch?v=wOBnq0Ewz5k,0
53.25209,34.37167,0x4132a78d14da3a05:0x6ad84109759a19a0,61422,Тролль,https://www.youtube.com/watch?v=q--5Ht49vNY,0
50.61074,36.58015,0x41266af42d5c5863:0xc4cfd2138d424649,73928,Тролль,https://www.youtube.com/watch?v=q--5Ht49vNY,0
55.80945,37.95806,0x414acc71afc70c31:0x26a24d6ca774c494,75427,Тролль,https://www.youtube.com/watch?v=q--5Ht49vNY,0
46.34968,48.04076,0x41a90584a786c9ed:0x5a2144fabe5dcac2,86878,Тролль,https://www.youtube.com/watch?v=q--5Ht49vNY,0
64.5401,40.5433,0x441833f755c232e1:0x403eec437ac89a31,58272,Розовое вино,https://www.youtube.com/watch?v=wOBnq0Ewz5k,0
54.90442,52.3154,0x41605c5672d84245:0xc5e4cdd6efdd5177,52411,Тролль,https://www.youtube.com/watch?v=q--5Ht49vNY,0
40.58972,49.66861,0x403096dcd0923f6b:0xdf4767c369322a71,497209,Vasif Azimov Derdimi Dinle 2017,https://www.youtube.com/watch?v=gYGuiuVgse4,0
40.68278,46.36056,0x403f50fd8d5a9991:0xbe3f536560c50969,62900,Vasif Azimov Derdimi Dinle 2017,https://www.youtube.com/watch?v=gYGuiuVgse4,0
40.37767,49.89201,0x40307d6bd6211cf9:0x343f6b5e7ae56c6b,1771104,Vasif Azimov Derdimi Dinle 2017,https://www.youtube.com/watch?v=gYGuiuVgse4,0
58.38062,26.72509,0x46eb36d8d55d3df7:0x400b36d18fc6d10,55167,Perfect,https://www.youtube.com/watch?v=2Vv-BfVoq4g,0
59.43696,24.75353,0x46929499df5616bf:0x400b36d18fc6270,277215,Perfect,https://www.youtube.com/watch?v=2Vv-BfVoq4g,0
58.38588,24.49711,0x46ecfcde022724a1:0x400b36d18fc6990,19256,Perfect,https://www.youtube.com/watch?v=2Vv-BfVoq4g,0
54.68916,25.2798,0x46dd93fb5c6408f5:0x400d18c70e9dc40,735839,Perfect,https://www.youtube.com/watch?v=2Vv-BfVoq4g,0
55.93333,23.31667,0x46e5e25c49ce7c89:0x400d18c70e9db00,71572,Perfect,https://www.youtube.com/watch?v=2Vv-BfVoq4g,0
55.73333,24.35,0x46e6318b530fb14f:0x400d18c70e9da80,52621,Perfect,https://www.youtube.com/watch?v=2Vv-BfVoq4g,0
56.31667,22.33333,0x46e57e697ed057ed:0xab0422d970073f87,18514,Perfect,https://www.youtube.com/watch?v=2Vv-BfVoq4g,0
54.55991,23.35412,0x46e0d186b069aae3:0x71b3f20f19b0c9a7,21339,Perfect,https://www.youtube.com/watch?v=2Vv-BfVoq4g,0
55.70888,21.14312,0x46e4dbfae447448b:0x80acbc67146d87a1,97009,Perfect,https://www.youtube.com/watch?v=2Vv-BfVoq4g,0
54.90272,23.90961,0x46e72270b167d343:0x614bd1e0c7378bbc,292839,Perfect,https://www.youtube.com/watch?v=2Vv-BfVoq4g,0
54.39635,24.04142,0x46e0ad96296a4661:0x82972fadf01455e6,24559,Perfect,https://www.youtube.com/watch?v=2Vv-BfVoq4g,0
63.82842,20.25972,0x467c4e1b68add7f9:0x4034506de8c8560,20675,Perfect,https://www.youtube.com/watch?v=2Vv-BfVoq4g,0
65.58415,22.15465,0x467f6314d2e8b867:0x4034506de8c8620,10330,Perfect,https://www.youtube.com/watch?v=2Vv-BfVoq4g,0
51.23333,51.36667,0x4171ba3876f94b7d:0x6771f0f3596acc1b,129215,Gangnam Style,https://www.youtube.com/watch?v=9bZkp7q19f0,0
49.83333,73.1658,0x4243465ad22d0559:0xa90b6be0d244d433,171599,Тролль,https://www.youtube.com/watch?v=q--5Ht49vNY,0
47.11667,51.88333,0x41a3ea26f5b2dd0d:0x3e4a125c0e268d2d,396642,Gangnam Style,https://www.youtube.com/watch?v=9bZkp7q19f0,0
50.27969,57.20718,0x4182214bb81c89f9:0xffe03f81724c7c2d,242094,Gangnam Style,https://www.youtube.com/watch?v=9bZkp7q19f0,0
43.65,51.16667,0x41b4321732bc75d7:0x7614e1e6630a7769,65307,Gangnam Style,https://www.youtube.com/watch?v=9bZkp7q19f0,0
42.5088,41.87088,0x405c24e8b5416e97:0x554b6500e78b56d8,24964,Despacito,https://www.youtube.com/watch?v=kJQP7kiw5Fk,0
41.69411,44.83368,0x40440cd7e64f626b:0x61d084ede2576ea3,995882,Dalinda,https://www.youtube.com/watch?v=ECIU3SQyUU4,0
42.26791,42.69459,0x405c8ce30e54af2d:0xfbec41b2d626656f,113101,Dalinda,https://www.youtube.com/watch?v=ECIU3SQyUU4,0
41.64228,41.63392,0x406786304ea2d221:0x7a3053a9e12ea967,121430,Despacito,https://www.youtube.com/watch?v=kJQP7kiw5Fk,0
40.18111,44.51361,0x406aa2dab8fc8b5b:0x3d1479ae87da526a,1112437,Qefs Milion A,https://www.youtube.com/watch?v=vbFxb22vu_M,0
46.84274,29.62909,0x40c902e8fd3f4cbf:0xfffe2ce60be34818,63993,Тролль,https://www.youtube.com/watch?v=q--5Ht49vNY,0
47.00556,28.8575,0x40c97c3628b769a1:0x37d1d6305749dd3c,420137,Nu ma uita,https://www.youtube.com/watch?v=opWD4wILjmg,0
47.76314,27.92932,0x40cb673a731f2613:0x75ffb7a54ede02d9,24302,Тролль,https://www.youtube.com/watch?v=q--5Ht49vNY,0
55.1904,30.2049,0x46c573e3fc7c7be7:0x430637d0624afff4,176525,Тролль,https://www.youtube.com/watch?v=q--5Ht49vNY,0
53.9,27.56667,0x46dbcfd35b1e6ad3:0xb61b853ddb570d9,363453,Тролль,https://www.youtube.com/watch?v=q--5Ht49vNY,0
53.9168,30.3449,0x46d0521c52844571:0xcf85d14239bb73b6,165052,Тролль,https://www.youtube.com/watch?v=q--5Ht49vNY,0
53.6884,23.8258,0x46dfd64beac55d1d:0xf013fd26569718c0,202766,Тролль,https://www.youtube.com/watch?v=q--5Ht49vNY,0
52.4345,30.9754,0x46d4699b50faf1a5:0x5ecca30fd2361396,250080,Тролль,https://www.youtube.com/watch?v=q--5Ht49vNY,0
52.09755,23.68775,0x47210c0223630975:0x4d319ea41f64ae99,226858,Тролль,https://www.youtube.com/watch?v=q--5Ht49vNY,0
47.2,23.05,0x474842a15ce95f31:0x56c280de3735b817,43395,Perfect,https://www.youtube.com/watch?v=2Vv-BfVoq4g,0
46.63333,27.73333,0x40ca7370f3bf8b01:0x53cdb7409616b286,43733,Perfect,https://www.youtube.com/watch?v=2Vv-BfVoq4g,0
46.56667,23.78333,0x47496620aa78a95b:0xc7f433dbd893f8a3,26010,Perfect,https://www.youtube.com/watch?v=2Vv-BfVoq4g,0
45.16667,28.8,0x40b75948b811aab5:0xa16c50a0d8a6e42a,31732,Perfect,https://www.youtube.com/watch?v=2Vv-BfVoq4g,0
46.54245,24.55747,0x474bb64a553e9177:0xb1573a839869d90d,157608,Perfect,https://www.youtube.com/watch?v=2Vv-BfVoq4g,0
44.92543,25.4567,0x40b2f6bf2770f35b:0xcaaa1bbf5896e8a0,60334,Perfect,https://www.youtube.com/watch?v=2Vv-BfVoq4g,0
45.75372,21.22571,0x4745677dcb0fb5a7:0x537faf6473936749,517665,Perfect,https://www.youtube.com/watch?v=2Vv-BfVoq4g,0
45.84973,27.43441,0x40b4283938df3013:0xe228bfc253c4022f,28915,Nu ma uita,https://www.youtube.com/watch?v=opWD4wILjmg,0
47.63333,26.25,0x4734fc1fc6ebe593:0x1ec62d12b9588ddd,94657,Perfect,https://www.youtube.com/watch?v=2Vv-BfVoq4g,0
44.43333,24.36667,0x40ad38307c82022d:0xc78ff75e3542c846,44437,Perfect,https://www.youtube.com/watch?v=2Vv-BfVoq4g,0
47.93195,23.88603,0x4737bbab9a8fb321:0xd8dbb17f72b9d7f5,21361,Perfect,https://www.youtube.com/watch?v=2Vv-BfVoq4g,0
45.8,24.15,0x474c6788fd2c1cd5:0x3ade9d214e3390b4,161829,Perfect,https://www.youtube.com/watch?v=2Vv-BfVoq4g,0
45.86667,25.78333,0x40b4a4be8c5e8aeb:0xaf63eed88e8253ee,27627,Perfect,https://www.youtube.com/watch?v=2Vv-BfVoq4g,0
47.79926,22.86255,0x47380434f4e50c2b:0x25e464296f0c3074,114768,Perfect,https://www.youtube.com/watch?v=2Vv-BfVoq4g,0
46.92119,26.92646,0x40cabcd6d448900b:0x65991ff51b7be35b,31789,Perfect,https://www.youtube.com/watch?v=2Vv-BfVoq4g,0
45.1,24.36667,0x474d38a5241617a1:0x842353737a05a49a,64940,Perfect,https://www.youtube.com/watch?v=2Vv-BfVoq4g,0
45.30083,21.88917,0x47502a14d6a718d9:0xb62b9e8261fdbec8,34634,Perfect,https://www.youtube.com/watch?v=2Vv-BfVoq4g,0
44.95,26.01667,0x40b249f6a8d6eff7:0xb3fe6965e659119,165915,Perfect,https://www.youtube.com/watch?v=2Vv-BfVoq4g,0
44.85,24.86667,0x40b2bc8be0522b5b:0xf26c37a94326f876,125429,Perfect,https://www.youtube.com/watch?v=2Vv-BfVoq4g,0
46.91667,26.33333,0x47355449968fa865:0x52d3dedb49e2d0b8,50523,Perfect,https://www.youtube.com/watch?v=2Vv-BfVoq4g,0
45.41667,23.36667,0x474dc43c35aa5d4b:0x75d6f7d6d5ab42e5,29585,Perfect,https://www.youtube.com/watch?v=2Vv-BfVoq4g,0
47.0458,21.91833,0x474647e368762353:0x1b55a486d65d5344,212319,Perfect,https://www.youtube.com/watch?v=2Vv-BfVoq4g,0
46.35,25.8,0x474b2a092c490c6b:0x6aa5d0a276cb4941,26884,Perfect,https://www.youtube.com/watch?v=2Vv-BfVoq4g,0
46.16667,24.35,0x474b8ef025ac69cf:0xd85c7cb09cd9a82f,20084,Perfect,https://www.youtube.com/watch?v=2Vv-BfVoq4g,0
44.25,28.28333,0x40ba918fec22582d:0x51c8ed11038a5699,12804,Perfect,https://www.youtube.com/watch?v=2Vv-BfVoq4g,0
45.68861,21.90306,0x474fbebd56492451:0xe9161dd73d36f5a4,20080,Perfect,https://www.youtube.com/watch?v=2Vv-BfVoq4g,0
47.16667,27.6,0x40cafb7cf639ddbb:0x7ccb80da5426f53c,544619,Perfect,https://www.youtube.com/watch?v=2Vv-BfVoq4g,0
45.75,22.9,0x474e8a547396159f:0x19f38ced3c35233b,24903,Perfect,https://www.youtube.com/watch?v=2Vv-BfVoq4g,0
43.88333,25.96667,0x40ae66510f097829:0xd0bfcfa53d5ba908,26151,Perfect,https://www.youtube.com/watch?v=2Vv-BfVoq4g,0
45.45,28.05,0x40b6dee589f2c4b5:0x53d7342f252d702b,171250,Perfect,https://www.youtube.com/watch?v=2Vv-BfVoq4g,0
45.7,27.18333,0x40b418a3872196a3:0x78a9ff91284d232,50790,Perfect,https://www.youtube.com/watch?v=2Vv-BfVoq4g,0
44.63194,22.65611,0x475231c5a8871173:0x3370a1b752cbe6b,31934,Perfect,https://www.youtube.com/watch?v=2Vv-BfVoq4g,0
45.88333,22.9,0x474ef2942e4b17ed:0x7a9550f58a1eda77,42079,Perfect,https://www.youtube.com/watch?v=2Vv-BfVoq4g,0
44.31667,23.8,0x4752d70e6d6dcd07:0x4650f2eadbde99f9,193907,Perfect,https://www.youtube.com/watch?v=2Vv-BfVoq4g,0
44.18073,28.63432,0x40bae54a64345229:0x637be1cd3e654850,199026,Perfect,https://www.youtube.com/watch?v=2Vv-BfVoq4g,0
46.76667,23.6,0x47490c1f916c0b8b:0xbbc601c331f148b,715057,Perfect,https://www.youtube.com/watch?v=2Vv-BfVoq4g,0
45.12619,25.73496,0x40b3007e06e471ab:0x8d24be2ca6c16a32,17628,Perfect,https://www.youtube.com/watch?v=2Vv-BfVoq4g,0
45.15,26.83333,0x40b15fd8fd6ff6af:0xc32cfa9242caeca7,75755,Havana,https://www.youtube.com/watch?v=BQ0mxQXmLsk,0
44.43225,26.10626,0x40b1f93abf3cad4f:0xac0632e37c9ca628,3135402,Perfect,https://www.youtube.com/watch?v=2Vv-BfVoq4g,0
45.64861,25.60613,0x40b35b862aa214f1:0x6cf5f2ef54391e0f,263073,Perfect,https://www.youtube.com/watch?v=2Vv-BfVoq4g,0
45.26667,27.98333,0x40b6d62ac5c69441:0x688e3ee9bf757c9e,50352,Havana,https://www.youtube.com/watch?v=BQ0mxQXmLsk,0
47.75,26.66667,0x4734ebd7d24fab11:0xfc093f7416c4f8ab,74479,Perfect,https://www.youtube.com/watch?v=2Vv-BfVoq4g,0
47.13316,24.50011,0x4749f7b004cf46c7:0xa78abae723b4e25c,60576,Perfect,https://www.youtube.com/watch?v=2Vv-BfVoq4g,0
46.23175,27.66907,0x40b5dd613e6bf583:0xe93b835203ee1a4f,25069,Nu ma uita,https://www.youtube.com/watch?v=opWD4wILjmg,0
47.65729,23.56808,0x4737dc70b4206f37:0x30914e534fa9d1dd,118235,Perfect,https://www.youtube.com/watch?v=2Vv-BfVoq4g,0
46.56718,26.91384,0x40b570183882e30b:0x2659d504aae13301,108469,Perfect,https://www.youtube.com/watch?v=2Vv-BfVoq4g,0
46.18333,21.31667,0x4745984ba35c59c3:0xf70074a3e558491,147427,Perfect,https://www.youtube.com/watch?v=2Vv-BfVoq4g,0
43.98333,25.33333,0x40adcdc80db70cfd:0x5984c9db9c065e9d,36131,Nu ma uita,https://www.youtube.com/watch?v=opWD4wILjmg,0
46.06667,23.58333,0x474ea80cce754875:0xe9b0f44e8e45cd05,70618,Perfect,https://www.youtube.com/watch?v=2Vv-BfVoq4g,0
50.26487,28.67669,0x472c64a32bfa355d:0xf14ad2a3d9b9e229,123816,Тролль,https://www.youtube.com/watch?v=q--5Ht49vNY,0
47.82289,35.19031,0x40dc673dfa85bb03:0x7e675cd9074d3f4a,260074,Тролль,https://www.youtube.com/watch?v=q--5Ht49vNY,0
49.23278,28.48097,0x472d5b65195a6489:0xcbd4e159eedd74fe,227397,Тролль,https://www.youtube.com/watch?v=q--5Ht49vNY,0
48.61667,22.3,0x473919b944b6e3d9:0xda6ae0130042a3c,84719,Тролль,https://www.youtube.com/watch?v=q--5Ht49vNY,0
49.55342,25.58918,0x473036ad4b82ce75:0xc484a447edb154e8,160213,Тролль,https://www.youtube.com/watch?v=q--5Ht49vNY,0
50.9216,34.80029,0x41290220fc73a461:0xdb74f6366b836c28,113486,Тролль,https://www.youtube.com/watch?v=q--5Ht49vNY,0
44.95719,34.11079,0x40eadddedf991cc5:0x9c29422fbc780b40,47974,Тролль,https://www.youtube.com/watch?v=q--5Ht49vNY,0
44.58883,33.5224,0x409525ef659144f5:0xbd2da7afff4d34cc,31316,Тролль,https://www.youtube.com/watch?v=q--5Ht49vNY,0
49.59373,34.54073,0x40d825e425e6ba6b:0xcf3e6bdfb9e4ca82,133232,Тролль,https://www.youtube.com/watch?v=q--5Ht49vNY,0
46.47747,30.73262,0x40c6318a0b864c43:0x129f8fe28cf2176c,483517,Тролль,https://www.youtube.com/watch?v=q--5Ht49vNY,0
46.96591,31.9974,0x40c5cb89fb7213d5:0x970e39fab9e05680,173085,Тролль,https://www.youtube.com/watch?v=q--5Ht49vNY,0
47.09514,37.54131,0x40e6e6a7bee7582b:0xa5d118300a75b5ce,101072,Тролль,https://www.youtube.com/watch?v=q--5Ht49vNY,0
49.83826,24.02324,0x473add7c09109a57:0x4223c517012378e2,430670,Тролль,https://www.youtube.com/watch?v=q--5Ht49vNY,0
50.75932,25.34244,0x472599eba185965d:0xd25274a2228db86c,131768,Тролль,https://www.youtube.com/watch?v=q--5Ht49vNY,0
50.45466,30.5238,0x40d4cf4ee15a4505:0x764931d2170146fe,2202671,Тролль,https://www.youtube.com/watch?v=q--5Ht49vNY,0
47.90966,33.38044,0x40dadfe03154ab7b:0xb0fa3a177d6b186e,207141,Тролль,https://www.youtube.com/watch?v=q--5Ht49vNY,0
49.06802,33.42041,0x40d753ab9b0218df:0x49204e009e9c5b1c,81241,Тролль,https://www.youtube.com/watch?v=q--5Ht49vNY,0
48.5132,32.2597,0x40d0432708441b67:0xe828c54149a0e8d8,110947,Тролль,https://www.youtube.com/watch?v=q--5Ht49vNY,0
49.42161,26.99653,0x4732064344bb178b:0xd9f30b3b24d9c964,154484,Тролль,https://www.youtube.com/watch?v=q--5Ht49vNY,0
46.65581,32.6178,0x40c41aa25d9bf967:0xf3a5478c8e3121fe,156816,Тролль,https://www.youtube.com/watch?v=q--5Ht49vNY,0
49.98081,36.25272,0x4127a09f63ab0f8b:0x2d4c18681aa4be0a,480096,Тролль,https://www.youtube.com/watch?v=q--5Ht49vNY,0
48.9215,24.70972,0x4730c16c34b0381d:0xd6d32394e59e41c2,162965,Тролль,https://www.youtube.com/watch?v=q--5Ht49vNY,0
48.023,37.80224,0x40e0909500919a2d:0x36335efdc5856f84,106205,Тролль,https://www.youtube.com/watch?v=q--5Ht49vNY,0
48.4593,35.03865,0x40dbe303fd08468f:0xa1cf3d5f2c11aba,357057,Тролль,https://www.youtube.com/watch?v=q--5Ht49vNY,0
48.51134,34.6021,0x40dbda360ea4dfed:0xd0e3b9284b2885f8,69768,Тролль,https://www.youtube.com/watch?v=q--5Ht49vNY,0
48.29149,25.94034,0x4734087fe2f6cd05:0xc5b396f659796d7a,195485,Тролль,https://www.youtube.com/watch?v=q--5Ht49vNY,0
51.50551,31.28487,0x46d5488971ee3597:0x2a2348d3e76038b5,113360,Тролль,https://www.youtube.com/watch?v=q--5Ht49vNY,0
49.42854,32.06207,0x40d14b866064977f:0xf8dce723a9cbb5d8,122700,Тролль,https://www.youtube.com/watch?v=q--5Ht49vNY,0
49.80939,30.11209,0x40d3423e37227b9d:0x84e311f8582cc6e8,77261,Тролль,https://www.youtube.com/watch?v=q--5Ht49vNY,0
47.18333,20.2,0x474141123b36bec5:0x400c4290c1e11d0,51200,Havana,https://www.youtube.com/watch?v=BQ0mxQXmLsk,0
46.253,20.14824,0x474487e22bcce54b:0x400c4290c1e1190,143046,Havana,https://www.youtube.com/watch?v=BQ0mxQXmLsk,0
47.95539,21.71671,0x47389fe7b75757df:0x400c4290c1e11a0,90740,Havana,https://www.youtube.com/watch?v=BQ0mxQXmLsk,0
48.1,20.78333,0x47409e878d72ebe7:0x400c4290c1e11b0,103119,Havana,https://www.youtube.com/watch?v=BQ0mxQXmLsk,0
46.41667,20.33333,0x474468b796f45a99:0x400c4290c1e1290,18688,Havana,https://www.youtube.com/watch?v=BQ0mxQXmLsk,0
47.90265,20.37329,0x47408d7894b04023:0x63adb259948d1c24,37791,Havana,https://www.youtube.com/watch?v=BQ0mxQXmLsk,0
47.53333,21.63333,0x47470c2afe5e2b83:0x400c4290c1e1170,163193,Havana,https://www.youtube.com/watch?v=BQ0mxQXmLsk,0
46.68333,21.1,0x47442b94eb71f6fb:0x400c4290c1e11c0,31339,Havana,https://www.youtube.com/watch?v=BQ0mxQXmLsk,0
48.99839,21.23393,0x473eed64cbe0034d:0x400f7d1c69755a0,60343,Perfect,https://www.youtube.com/watch?v=2Vv-BfVoq4g,0
49.06144,20.29798,0x473e3a94bcfda191:0x93974a0aef86b920,34471,Perfect,https://www.youtube.com/watch?v=2Vv-BfVoq4g,0
48.75434,21.9195,0x4739323ecab51b1b:0x400f7d1c6974ab0,14630,Havana,https://www.youtube.com/watch?v=BQ0mxQXmLsk,0
48.71395,21.25808,0x473ee01b67c6957b:0x400f7d1c6978bd0,240096,Perfect,https://www.youtube.com/watch?v=2Vv-BfVoq4g,0
42.48333,26.5,0x40a6342956b710b5:0xf4177c0a63985b6a,43091,Antilopa,https://www.youtube.com/watch?v=S37CvSvQN7o,0
43.21,23.5625,0x40ab165d222faba7:0x400a01269bf5d40,65801,Antilopa,https://www.youtube.com/watch?v=S37CvSvQN7o,0
43.99,22.8725,0x475379eca2009025:0x1f853ae2f877d8b7,34937,Antilopa,https://www.youtube.com/watch?v=S37CvSvQN7o,0
43.08124,25.62904,0x40a9214b3d9491dd:0x400a01269bf5dc0,106332,Antilopa,https://www.youtube.com/watch?v=S37CvSvQN7o,0
43.21667,27.91667,0x40a4538baaf3d7a1:0x5727941c71a58b7c,300458,Antilopa,https://www.youtube.com/watch?v=S37CvSvQN7o,0
43.56667,27.83333,0x40a51687c78b7c95:0xb5ce55460f7712d4,67436,Antilopa,https://www.youtube.com/watch?v=S37CvSvQN7o,0
42.43278,25.64194,0x40a8690b30e83935:0x74baed1462879fb1,114133,Antilopa,https://www.youtube.com/watch?v=S37CvSvQN7o,0
42.69751,23.32415,0x40aa8682cb317bf5:0x400a01269bf5e60,2054629,Antilopa,https://www.youtube.com/watch?v=S37CvSvQN7o,0
42.68583,26.32917,0x40a620c66ffa39c9:0x400a01269bf59e0,70737,Antilopa,https://www.youtube.com/watch?v=S37CvSvQN7o,0
43.27064,26.92286,0x40a58a67f395c66b:0x4eda59530fcee61b,74537,Antilopa,https://www.youtube.com/watch?v=S37CvSvQN7o,0
43.85639,25.97083,0x40ae60b47fe2a385:0xbe27db5216286802,122322,Antilopa,https://www.youtube.com/watch?v=S37CvSvQN7o,0
42.15,24.75,0x14acd108a248763d:0x6470d1fa6f1338a0,286023,Antilopa,https://www.youtube.com/watch?v=S37CvSvQN7o,0
43.41667,24.61667,0x40abf38934b400bb:0x400a01269bf5620,88842,Antilopa,https://www.youtube.com/watch?v=S37CvSvQN7o,0
42.6,23.03333,0x14aacb4941e949cf:0x400a01269bf5580,59904,Antilopa,https://www.youtube.com/watch?v=S37CvSvQN7o,0
42.2,24.33333,0x14acb004f11b7311:0xdcb597ec099963ab,63525,Antilopa,https://www.youtube.com/watch?v=S37CvSvQN7o,0
42.28389,22.69111,0x14aa9c6693c5328f:0xcc5e3380f6952464,27415,Antilopa,https://www.youtube.com/watch?v=S37CvSvQN7o,0
41.65,25.36667,0x14ad6e71326aad87:0x400a01269bf5220,32249,İki Aşık,https://www.youtube.com/watch?v=ibwSWfbaW0I,0
41.93415,25.55557,0x14ad50d3362d8d77:0xf260d9e68937b3fc,72406,Antilopa,https://www.youtube.com/watch?v=S37CvSvQN7o,0
42.61667,25.4,0x40a854039745e71f:0xe93f825ff853e53d,38057,Antilopa,https://www.youtube.com/watch?v=S37CvSvQN7o,0
42.87472,25.33417,0x40a90fe2d6958745:0x400a01269bf5010,45602,Antilopa,https://www.youtube.com/watch?v=S37CvSvQN7o,0
42.05,25.6,0x40a801df097ac7bd:0x64187d1d61625dd5,22655,Antilopa,https://www.youtube.com/watch?v=S37CvSvQN7o,0
42.50606,27.46781,0x40a69266f9fc9d91:0x400a01269bf4df0,162894,Antilopa,https://www.youtube.com/watch?v=S37CvSvQN7o,0
42.01667,23.1,0x14aaf6008f7f0f63:0x417cdcb68440f58d,93429,Antilopa,https://www.youtube.com/watch?v=S37CvSvQN7o,0
42.01667,24.86667,0x14acd89374a5fc99:0x26c73ab4bdc6f496,29081,Antilopa,https://www.youtube.com/watch?v=S37CvSvQN7o,0
41.13488,24.888,0x14ac2d3b68e5d97d:0xf6ee78a35222d0de,42677,An Me Dis Na Kleo,https://www.youtube.com/watch?v=Ki2UJC0le9k,0
40.64361,22.93086,0x14a838f41428e0ed:0x9bae715b8d574a9,561495,Havana,https://www.youtube.com/watch?v=BQ0mxQXmLsk,0
41.08499,23.54757,0x14a9718b6729e5d5:0x9dd7c70595ce357,52739,An Me Dis Na Kleo,https://www.youtube.com/watch?v=Ki2UJC0le9k,0
41.11917,25.40535,0x14adec20fbf23889:0xb4daabef1d90957b,24335,An Me Dis Na Kleo,https://www.youtube.com/watch?v=Ki2UJC0le9k,0
40.84995,25.87644,0x14b21c9f5c02c8d5:0xbab0f92b441e41e3,30912,An Me Dis Na Kleo,https://www.youtube.com/watch?v=Ki2UJC0le9k,0
41.45139,31.79305,0x409c7c43e91296e7:0x24080dea6d843794,284538,İki Aşık,https://www.youtube.com/watch?v=ibwSWfbaW0I,0
40.65501,29.27693,0x14cafacc286b4cb1:0xb60ab599f8c5d1d0,127683,İki Aşık,https://www.youtube.com/watch?v=ibwSWfbaW0I,0
41.005,39.72694,0x40643c066bf2ec89:0xc4390aca748c2b71,482057,İki Aşık,https://www.youtube.com/watch?v=ibwSWfbaW0I,0
40.31389,36.55444,0x407db64b082d54f1:0xfcd494e5051ec25a,172805,İki Aşık,https://www.youtube.com/watch?v=ibwSWfbaW0I,0
40.9781,27.51101,0x14b4601d4c18e4e5:0xc572e1c0c57cb1b,37690,İki Aşık,https://www.youtube.com/watch?v=ibwSWfbaW0I,0
41.27976,36.3361,0x408877e97607d663:0xb939cc265fdeb52,784221,İki Aşık,https://www.youtube.com/watch?v=ibwSWfbaW0I,0
41.02083,40.52194,0x40667ac3f7b24237:0x15900b899fb9b54,139331,İki Aşık,https://www.youtube.com/watch?v=ibwSWfbaW0I,0
40.97782,37.89047,0x406321e8831051d5:0xef59fbaab5f13cdd,214171,İki Aşık,https://www.youtube.com/watch?v=ibwSWfbaW0I,0
41.40385,27.35918,0x14b4a4b464b4438d:0x6a3ca9160e28dbed,162105,İki Aşık,https://www.youtube.com/watch?v=ibwSWfbaW0I,0
41.37805,33.77528,0x4084fa1240163891:0xd819b0a02911d532,135613,İki Aşık,https://www.youtube.com/watch?v=ibwSWfbaW0I,0
40.59825,43.08548,0x40698ed9cd732267:0x46d5117e984d216,81565,Eteği Belinde,https://www.youtube.com/watch?v=vyXOEGyjQ0Q,0
41.20488,32.62768,0x40835335ca55f4a3:0x58c149eab8f0a954,199432,İki Aşık,https://www.youtube.com/watch?v=ibwSWfbaW0I,0
41.01384,28.94966,0x14caa7040068086b:0xe1ccfe98bc01b0d0,14690172,İki Aşık,https://www.youtube.com/watch?v=ibwSWfbaW0I,0
40.91698,38.38741,0x40636c6b991a79b7:0x2409f2df5be31b5f,167883,İki Aşık,https://www.youtube.com/watch?v=ibwSWfbaW0I,0
41.67719,26.55597,0x14b32f77a26304e1:0xa0cfc0ca431c30bc,202972,İki Aşık,https://www.youtube.com/watch?v=ibwSWfbaW0I,0
40.83889,31.16389,0x409da01b6536d421:0xe1d0a622568cf8d7,192076,İki Aşık,https://www.youtube.com/watch?v=ibwSWfbaW0I,0
40.54889,34.95333,0x40872a9f1a35ab71:0xa34943cf02a0f8d5,167911,İki Aşık,https://www.youtube.com/watch?v=ibwSWfbaW0I,0
41.15917,27.8,0x14b4dd92e238353d:0x522f14d777b250a6,480747,İki Aşık,https://www.youtube.com/watch?v=ibwSWfbaW0I,0
40.59995,33.6153,0x4083c36f2a9f52bf:0xf5f91d66cd94dd3a,64977,İki Aşık,https://www.youtube.com/watch?v=ibwSWfbaW0I,0
40.15552,26.41271,0x14b1a9d8214a2f3f:0x8cebeb3703e22f7f,331914,İki Aşık,https://www.youtube.com/watch?v=ibwSWfbaW0I,0
40.73583,31.60611,0x409d3f16dc8406d1:0x83cc363ab54b82e9,182437,İki Aşık,https://www.youtube.com/watch?v=ibwSWfbaW0I,0
40.14192,29.97932,0x14cb8ff9d112b87f:0xbc0204b016c9231f,122372,İki Aşık,https://www.youtube.com/watch?v=ibwSWfbaW0I,0
40.35222,27.97667,0x14b5d377a8bfb0f1:0xbd33d2bd7058850e,96744,İki Aşık,https://www.youtube.com/watch?v=ibwSWfbaW0I,0
40.65333,35.83306,0x40876e4f7cbd9773:0x1916fc24a6992dcf,115957,İki Aşık,https://www.youtube.com/watch?v=ibwSWfbaW0I,0
50.72314,23.25196,0x472367adda11d277:0xba00459202f8a580,41099,Perfect,https://www.youtube.com/watch?v=2Vv-BfVoq4g,0
52.22977,21.01178,0x471ecc669a869f01:0x72f0be2a88ead3fc,7078936,Perfect,https://www.youtube.com/watch?v=2Vv-BfVoq4g,0
51.53131,20.00855,0x47199ace686e42e7:0x3654aeb30e960054,18057,Miłość w Zakopanem,https://www.youtube.com/watch?v=n2hJA78YuWw,0
50.01381,20.98698,0x473d834352c3ffc7:0xcf1a70dff872f61e,56358,Perfect,https://www.youtube.com/watch?v=2Vv-BfVoq4g,0
50.57304,21.67937,0x473d4a0dd8824db1:0xc70875667fbbaaf3,26320,Perfect,https://www.youtube.com/watch?v=2Vv-BfVoq4g,0
54.11175,22.93087,0x46e10239cf478e5b:0x922ff8bdc4a99ea0,36676,Miłość w Zakopanem,https://www.youtube.com/watch?v=n2hJA78YuWw,0
51.0374,21.07126,0x4718142991998103:0xd060229300b403f2,19098,Miłość w Zakopanem,https://www.youtube.com/watch?v=n2hJA78YuWw,0
51.95485,20.15837,0x471960563ba116f9:0x7928f5df207f9c10,19224,Perfect,https://www.youtube.com/watch?v=2Vv-BfVoq4g,0
52.16772,22.29006,0x471f5a4df670f065:0x48cc76a09ee72abe,33672,Perfect,https://www.youtube.com/watch?v=2Vv-BfVoq4g,0
50.04132,21.99901,0x473cfae3cc14d449:0xd2240d31b33eb2ed,400041,Perfect,https://www.youtube.com/watch?v=2Vv-BfVoq4g,0
51.40253,21.14714,0x4718592aa02cdbc7:0xe530d6c89ff4d21b,203070,Perfect,https://www.youtube.com/watch?v=2Vv-BfVoq4g,0
51.41655,21.96939,0x4722797a7842ef25:0x437ab7e0aef76771,14724,Perfect,https://www.youtube.com/watch?v=2Vv-BfVoq4g,0
49.78498,22.76728,0x473b7edf1fb668d1:0x1efc1701bb993ff0,38156,Perfect,https://www.youtube.com/watch?v=2Vv-BfVoq4g,0
52.17072,20.81214,0x4719358e99d00f77:0xb98b49a2cab7cfaf,18892,Perfect,https://www.youtube.com/watch?v=2Vv-BfVoq4g,0
53.08621,21.57566,0x471e417887f7b8e1:0x4b415eab2fa111e,14006,Perfect,https://www.youtube.com/watch?v=2Vv-BfVoq4g,0
53.77995,20.49416,0x46e2792d071419c7:0x106a8126cf54c20f,223534,Perfect,https://www.youtube.com/watch?v=2Vv-BfVoq4g,0
49.62177,20.69705,0x473de53cb3f195cf:0x9865e0e4a3f03225,35631,Perfect,https://www.youtube.com/watch?v=2Vv-BfVoq4g,0
50.28709,21.4239,0x473d6b4ff4d294d7:0x19cc789a16d17201,38411,Perfect,https://www.youtube.com/watch?v=2Vv-BfVoq4g,0
51.25,22.56667,0x472257141e154061:0x5528ee7af6e8e95f,525041,Perfect,https://www.youtube.com/watch?v=2Vv-BfVoq4g,0
53.17806,22.05935,0x471e3390b30041f9:0xd031ee40027c535a,23151,Perfect,https://www.youtube.com/watch?v=2Vv-BfVoq4g,0
49.68866,21.77058,0x473c48ca2a422a0f:0x7279237954aa022d,27412,Perfect,https://www.youtube.com/watch?v=2Vv-BfVoq4g,0
50.87033,20.62752,0x47178818af891105:0x5025d8b8c0cdcdf3,183600,Perfect,https://www.youtube.com/watch?v=2Vv-BfVoq4g,0
50.01623,22.67776,0x473c999ba4724117:0xf0af546945ff9776,28034,Perfect,https://www.youtube.com/watch?v=2Vv-BfVoq4g,0
53.82824,22.36469,0x46e1b97f3761e307:0x5341066a14824162,22163,Perfect,https://www.youtube.com/watch?v=2Vv-BfVoq4g,0
50.05146,21.41141,0x473d09882e23694b:0x59f606766b3e59fc,61802,Perfect,https://www.youtube.com/watch?v=2Vv-BfVoq4g,0
51.14312,23.4716,0x47239a58521ea5df:0x52be7d50d032f9f6,23439,Perfect,https://www.youtube.com/watch?v=2Vv-BfVoq4g,0
53.13333,23.16433,0x471ffc048f41971d:0x72317dcc8bf07b2c,290059,Perfect,https://www.youtube.com/watch?v=2Vv-BfVoq4g,0
52.03238,23.11652,0x472191265ba66957:0x596d837e3d7ee093,17480,Perfect,https://www.youtube.com/watch?v=2Vv-BfVoq4g,0
45.38361,20.38194,0x475adb5391b79ab3:0x440b7b8af2a0a08c,21941,Havana,https://www.youtube.com/watch?v=BQ0mxQXmLsk,0
42.37056,21.15528,0x13547e5d2cdacd71:0xec0e1a604157e8b5,1280,Fero - A pe din qysh,https://www.youtube.com/watch?v=8DLlAz2H6kI,0
41.71556,21.77556,0x13542bc1d2b9c535:0xe4cd993f2bdee535,23377,Perfect,https://www.youtube.com/watch?v=2Vv-BfVoq4g,0
42.00973,20.97155,0x1353f0e82a50e8db:0x5587e34b46cad34c,66616,papuqegucci 4k final render,https://www.youtube.com/watch?v=9Q2FrHH5hC8,0
41.4375,22.64333,0x14a9fdc01c936a37:0x40106f453c644e0,42231,Perfect,https://www.youtube.com/watch?v=2Vv-BfVoq4g,0
41.74583,22.19583,0x1355c2d35e610d3f:0x41a019700eb79956,39149,Perfect,https://www.youtube.com/watch?v=2Vv-BfVoq4g,0
41.99646,21.43141,0x135415a58c9aa2a5:0xb2ed88c260872020,537824,Perfect,https://www.youtube.com/watch?v=2Vv-BfVoq4g,0
42.21389,20.73972,0x1353950a12f4301f:0xda0e2e9b8d3d5850,1435,Fero - A pe din qysh,https://www.youtube.com/watch?v=8DLlAz2H6kI,0
42.67272,21.16688,0x13549ee605110927:0x9365bfdf385eb95a,1407,papuqegucci 4k final render,https://www.youtube.com/watch?v=9Q2FrHH5hC8,0
41.34514,21.55504,0x1356ebf17ddb9787:0xe5931e06fb2150c1,36145,Perfect,https://www.youtube.com/watch?v=2Vv-BfVoq4g,0
44.87083,20.64028,0x475a7edfdb24b6b1:0xff240110aa17676a,14614,Havana,https://www.youtube.com/watch?v=BQ0mxQXmLsk,0
41.11722,20.80194,0x1350db6587ea6657:0xc46cfc65390bc9d3,28606,Perfect,https://www.youtube.com/watch?v=2Vv-BfVoq4g,0
43.32472,21.90333,0x4755b0c240c81f65:0x56319fe3122ac3cd,332032,Lazov notorni - (Official Video 2017),https://www.youtube.com/watch?v=RuhRT7OJ8LA,0
42.99806,21.94611,0x475582b263712f39:0xd1b3351095c80638,23949,Lazov notorni - (Official Video 2017),https://www.youtube.com/watch?v=RuhRT7OJ8LA,0
42.13222,21.71444,0x13544fcc1ff6258d:0x91a2643775422ed7,39318,Perfect,https://www.youtube.com/watch?v=2Vv-BfVoq4g,0
43.58,21.33389,0x475687f1634a407f:0xeebd2ea42b43899c,20457,Lazov notorni - (Official Video 2017),https://www.youtube.com/watch?v=RuhRT7OJ8LA,0
44.01667,20.91667,0x475720dbdee00fd9:0xdfa77784524b968,211852,Lazov notorni - (Official Video 2017),https://www.youtube.com/watch?v=RuhRT7OJ8LA,0
41.79601,20.90819,0x1351577a0fe3dbdd:0x39f635036d650174,38581,papuqegucci 4k final render,https://www.youtube.com/watch?v=9Q2FrHH5hC8,0
42.46045,21.46986,0x13548d28fe87b91d:0xab45b8a9d06a705,835,Fero - A pe din qysh,https://www.youtube.com/watch?v=8DLlAz2H6kI,0
41.03143,21.33474,0x13572451365fb6fd:0xfa67bbbf65bec948,77856,Perfect,https://www.youtube.com/watch?v=2Vv-BfVoq4g,0
44.80401,20.46513,0x475a7aa3d7b53fbd:0x1db8645cf2177ee4,1503811,Lazov notorni - (Official Video 2017),https://www.youtube.com/watch?v=RuhRT7OJ8LA,0
-20.29806,57.47833,0x217c5cbbfff9ede5:0xa0ab8bed217a02c7,170044,Perfect,https://www.youtube.com/watch?v=2Vv-BfVoq4g,0
-20.26381,57.4791,0x217c5b362a53eb21:0xa89e7a31911b7451,20155,Perfect,https://www.youtube.com/watch?v=2Vv-BfVoq4g,0
-20.16194,57.49889,0x217c504941d601ef:0xfdc5186c91bdbb3d,248379,Perfect,https://www.youtube.com/watch?v=2Vv-BfVoq4g,0
-20.23325,57.46609,0x217c5b31d9db0e9d:0xf746dba92005fdcc,144630,Perfect,https://www.youtube.com/watch?v=2Vv-BfVoq4g,0
-21.28585,55.41124,0x87d8b4a9faed8ef9:0xbe39eaca22bbe05b,261785,Gucci Gang,https://www.youtube.com/watch?v=4LfJnj66HVQ,0
-26.1625,27.8725,0x1e959fc44e94e52b:0x21e34710a49d1963,99137,Omunye,https://www.youtube.com/watch?v=XpXub2jU38Q,0
-26.0941,28.00123,0x1e9574b0839fe795:0x4443ba51b0acaf0d,54755,Perfect,https://www.youtube.com/watch?v=2Vv-BfVoq4g,0
-25.74486,28.18783,0x1e95619cbec65033:0xf66262b07a847b4c,375887,Omunye,https://www.youtube.com/watch?v=XpXub2jU38Q,0
-33.91799,25.57007,0x1e7b290045ffd62b:0x86fd2337cd894226,67254,Perfect,https://www.youtube.com/watch?v=2Vv-BfVoq4g,0
-29.61679,30.39278,0x1ef6bdd89a970233:0xd8129bf7d1ab70cd,42400,Omunye,https://www.youtube.com/watch?v=XpXub2jU38Q,0
-26.20227,28.04363,0x1e950c68f0406a51:0x238ac9d9b1d34041,192977,Omunye,https://www.youtube.com/watch?v=XpXub2jU38Q,0
-29.8579,31.0292,0x1ef7aa0001bc61b7:0xcca75546c4aa6e81,325938,Omunye,https://www.youtube.com/watch?v=XpXub2jU38Q,0
-29.12107,26.214,0x1e8fc57b9f07bf8b:0x1f16f55bb211b749,31806,Perfect,https://www.youtube.com/watch?v=2Vv-BfVoq4g,0
-25.96553,32.58322,0x1ee69723b666da55:0x42497f579a6bb442,134123,Tsova,https://www.youtube.com/watch?v=5QgajC2e8X8,0
-25.85891,28.18577,0x1e957b0df5954b27:0x474f6dba7062227f,97559,Omunye,https://www.youtube.com/watch?v=XpXub2jU38Q,0
34.52813,69.17233,0x38d1694c3c1e6d49:0xebdf473578214429,62368,Behet Ghol Midam,https://www.youtube.com/watch?v=hcDwmtDpnSE,1
7.55633,99.61141,0x304d8c48216b0e49:0x260223bd14ef3124,105692,Panama,https://www.youtube.com/watch?v=tMmMTdc7RE0,0
9.14011,99.33311,0x3054066238bdcdf1:0x76a203de8fc1a5f8,869755,Panama,https://www.youtube.com/watch?v=tMmMTdc7RE0,0
19.90858,99.8325,0x30d7066713c38365:0x711554bbb1b60637,813636,Panama,https://www.youtube.com/watch?v=tMmMTdc7RE0,0
31.558,74.35071,0x39190483e58107d9:0xc23abe6ccc7e2462,1336727,Swag Se Swagat,https://www.youtube.com/watch?v=xmU0s2QtaEY,1
24.8608,67.0104,0x3eb33e06651d4bbf:0x9cf92f44555a0c23,1551851,Swag Se Swagat,https://www.youtube.com/watch?v=xmU0s2QtaEY,1
23.0391,90.76808,0x3a28dda23be28229:0x163ee1204ff9e240,53971,Ghoomar,https://www.youtube.com/watch?v=6cKErCWrb44,0
23.7104,90.40744,0x3755b8b087026b81:0x8fa563bbdd5904c2,3305552,Kala Chashma,https://www.youtube.com/watch?v=k4yXQkG2s1E,1
22.3384,91.83168,0x30acd8a64095dfd3:0x5015cc5bcb6905d9,332250,Kala Chashma,https://www.youtube.com/watch?v=k4yXQkG2s1E,1
3.58333,98.66667,0x303131cc1c3eb2fd:0x23d431c8a6908262,3609355,Jaran Goyang,https://www.youtube.com/watch?v=8nA-apwq0aY,0
6.93194,79.84778,0x3ae253d10f7a7003:0x320b2e4d32d3838d,725151,Entammede Jimikki Kammal,https://www.youtube.com/watch?v=FXiaIH49oAU,0
17.68009,83.20161,0x3a39431389e6973f:0x92d9c20395498468,276663,Naa Kallalona,https://www.youtube.com/watch?v=DVZhg9T_Fjs,0
19.45591,72.81136,0x3be7aa23dce7efbf:0x99bd87871748d8f4,43190,Ghoomar,https://www.youtube.com/watch?v=6cKErCWrb44,0
16.50745,80.6466,0x3a35eff9482d944b:0x939b7e84ab4a0265,280128,Vachinde,https://www.youtube.com/watch?v=YFfEFbC9_XQ,0
12.9184,79.13255,0x3bad38e61fa68ffb:0xbedda6917d262b5e,56129,Entammede Jimikki Kammal,https://www.youtube.com/watch?v=FXiaIH49oAU,0
25.31668,83.01041,0x398e2db76febcf4d:0x68131710853ff0b5,63960,Aa To Sahi,https://www.youtube.com/watch?v=AYmy75tnmTU,1
22.29941,73.20812,0x395fc8ab91a3ddab:0xac39d3bfe1473fb8,203682,Ghoomar,https://www.youtube.com/watch?v=6cKErCWrb44,0
19.21667,73.15,0x3be79442948bba51:0x28d43fde3c21dbf7,87773,Aa To Sahi,https://www.youtube.com/watch?v=AYmy75tnmTU,1
24.58584,73.71346,0x3967e56550a14411:0xdbd8c28455b868b0,62160,Ghoomar,https://www.youtube.com/watch?v=6cKErCWrb44,0
8.4855,76.94924,0x3b05bbb805bbcd47:0x15439fab5c5c81cb,214503,Entammede Jimikki Kammal,https://www.youtube.com/watch?v=FXiaIH49oAU,0
10.51667,76.21667,0x3ba7ee15ed42d1bb:0x82e45aa016ca7db,187156,Entammede Jimikki Kammal,https://www.youtube.com/watch?v=FXiaIH49oAU,0
13.63551,79.41989,0x3a4d4b0f88620427:0xcf4152d1daca0cac,35849,Naa Kallalona,https://www.youtube.com/watch?v=DVZhg9T_Fjs,0
8.72742,77.6838,0x3b0411625053c519:0xad791b361b359a4d,64024,Entammede Jimikki Kammal,https://www.youtube.com/watch?v=FXiaIH49oAU,0
10.8155,78.69651,0x3baaf50ff2aecdad:0x6de02c3bedbbaea6,1074388,Entammede Jimikki Kammal,https://www.youtube.com/watch?v=FXiaIH49oAU,0
10.78523,79.13909,0x3baab89cea453039:0xe113da9b1f632be6,74622,Entammede Jimikki Kammal,https://www.youtube.com/watch?v=FXiaIH49oAU,0
19.19704,72.96355,0x3be7b8fcfe76fd59:0xcf367d85f7c50283,304488,Ghoomar,https://www.youtube.com/watch?v=6cKErCWrb44,0
21.19594,72.83023,0x3be04e59411d1563:0xfe4558290938b042,457842,Ghoomar,https://www.youtube.com/watch?v=6cKErCWrb44,0
31.10442,77.16662,0x390578e3e35d6e67:0x1f7e7ff6ff9f54b7,908952,Cute Munda,https://www.youtube.com/watch?v=PDlw1Tn-PVk,0
17.67152,75.91044,0x3bc5d082b54ac5d5:0x3c719de6c83710d0,31644,Ghoomar,https://www.youtube.com/watch?v=6cKErCWrb44,1
26.71004,88.42851,0x39e44114f5441dcd:0xdeb5c4702063edff,870878,Aa To Sahi,https://www.youtube.com/watch?v=AYmy75tnmTU,1
17.50427,78.54263,0x3bcb84ad48255d29:0x410841a999b3433,272318,Vachinde,https://www.youtube.com/watch?v=YFfEFbC9_XQ,0
11.65376,78.15538,0x3babf1ccf52cba0b:0xee9989007068ca47,56573,Entammede Jimikki Kammal,https://www.youtube.com/watch?v=FXiaIH49oAU,0
29.86632,77.89118,0x390eb36e08b35119:0x798f5dc25ebd0a72,7841,High Rated Gabru,https://www.youtube.com/watch?v=hjWf8A0YNSE,0
23.34316,85.3094,0x39f4e104aa5db7dd:0xdc09d49d6899f43e,60389,Aa To Sahi,https://www.youtube.com/watch?v=AYmy75tnmTU,1
22.29161,70.79322,0x3959c98ac71cdf0f:0x76dd15cfbe93ad3b,83213,Ghoomar,https://www.youtube.com/watch?v=6cKErCWrb44,0
21.23333,81.63333,0x3a28dda23be28229:0x163ee1204ff9e240,53971,Ghoomar,https://www.youtube.com/watch?v=6cKErCWrb44,0
8.88113,76.58469,0x3b05fc5bdda9c621:0x8bf03195267372f7,78759,Entammede Jimikki Kammal,https://www.youtube.com/watch?v=FXiaIH49oAU,0
18.51957,73.85535,0x3bc2bf2e67461101:0x828d43bf9d9ee343,7959442,Ghoomar,https://www.youtube.com/watch?v=6cKErCWrb44,1
11.93381,79.82979,0x3a5361ab8e49cfcf:0xcc6bd326d2f0b04e,71926,Entammede Jimikki Kammal,https://www.youtube.com/watch?v=FXiaIH49oAU,0
18.62292,73.80696,0x3bc2b8377fbdeab3:0x2c4265dab1a7a0f8,238627,Ghoomar,https://www.youtube.com/watch?v=6cKErCWrb44,0
25.59408,85.13563,0x39f29937c52d4f05:0x831a0e05f607b270,4643057,Prem Ratan Dhan Payo,https://www.youtube.com/watch?v=bPk9bSvQQoc,1
30.33625,76.3922,0x391028935a3313df:0xd5bc56ad3b90bc7f,33840,Cute Munda,https://www.youtube.com/watch?v=PDlw1Tn-PVk,0
15.49574,73.82624,0x3bbfc0a93361ccd9:0xdd98120b24e5be61,15009,Perfect,https://www.youtube.com/watch?v=2Vv-BfVoq4g,0
10.77319,76.65366,0x3ba86dfa087d31ad:0xf542d6eb7a870a56,105145,Entammede Jimikki Kammal,https://www.youtube.com/watch?v=FXiaIH49oAU,0
28.63576,77.22445,0x390cfd5b347eb62d:0x52c2b7494e204dce,3333210,Gori Re,https://www.youtube.com/watch?v=p-Zq8clHK8Y,1
14.44992,79.98697,0x3a4c8cca0e958771:0xd3036c2025161f55,65262,Vachinde,https://www.youtube.com/watch?v=YFfEFbC9_XQ,0
19.99727,73.79096,0x3bddd290b09914b3:0xcb07845d9d28215c,63414,Ghoomar,https://www.youtube.com/watch?v=6cKErCWrb44,1
19.16023,77.31497,0x3bd1d66bb9d31721:0x43892c180155daf1,27012,Ghoomar,https://www.youtube.com/watch?v=6cKErCWrb44,1
21.14631,79.08491,0x3bd4c0a5a31faf13:0x19b37d06d0bb3e2b,112988,Ghoomar,https://www.youtube.com/watch?v=6cKErCWrb44,0
12.29791,76.63925,0x3baf70381d572ef9:0x2b89ece8c0f8396d,39210,Entammede Jimikki Kammal,https://www.youtube.com/watch?v=FXiaIH49oAU,0
28.98002,77.70636,0x390c64f457b66325:0x42faa83387a6be5e,134041,Gori Re,https://www.youtube.com/watch?v=p-Zq8clHK8Y,1
12.91723,74.85603,0x3ba35a4c37bf488f:0x827bbc7a74fcfe64,48524,Entammede Jimikki Kammal,https://www.youtube.com/watch?v=FXiaIH49oAU,0
11.04199,76.08154,0x3ba64a9be29b058f:0x23e371e0d4c30d8e,15203,Entammede Jimikki Kammal,https://www.youtube.com/watch?v=FXiaIH49oAU,0
9.91769,78.11898,0x3b00c582b1189633:0xdc955b7264f63933,80702,Entammede Jimikki Kammal,https://www.youtube.com/watch?v=FXiaIH49oAU,0
13.08784,80.27847,0x3a5265ea4f7d3361:0x6e61a70b6863d433,13716203,Entammede Jimikki Kammal,https://www.youtube.com/watch?v=FXiaIH49oAU,0
30.91204,75.85379,0x391a837462345a7d:0x681102348ec60610,455545,Gaal Ni Kadni,https://www.youtube.com/watch?v=U65TWIP3mpQ,0
26.83928,80.92313,0x399bfd991f32b16b:0x93ccba8909978be7,5736052,Prem Ratan Dhan Payo,https://www.youtube.com/watch?v=bPk9bSvQQoc,1
9.58692,76.52132,0x3b062ba16c6b435f:0xbe2b02f68f8dd06e,64833,Entammede Jimikki Kammal,https://www.youtube.com/watch?v=FXiaIH49oAU,0
25.18254,75.83907,0x396f9b30c41bb44d:0x5f5c103200045588,54090,Ghoomar,https://www.youtube.com/watch?v=6cKErCWrb44,0
16.69563,74.23167,0x3bc1000cdec07a29:0xece8ea642952e42f,42591,Ghoomar,https://www.youtube.com/watch?v=6cKErCWrb44,1
26.46523,80.34975,0x399c4770b127c46f:0x1778302a9fbe7b41,85734,Aa To Sahi,https://www.youtube.com/watch?v=AYmy75tnmTU,1
16.96036,82.23809,0x3a3827ddaf59b4f7:0x92f8ddb9c89a4803,32075,Naa Kallalona,https://www.youtube.com/watch?v=DVZhg9T_Fjs,0
31.32556,75.57917,0x391a5a5747a9eb91:0xc74b34c05aa5b4b8,254186,Gaal Ni Kadni,https://www.youtube.com/watch?v=U65TWIP3mpQ,0
26.26841,73.00594,0x39418c4eaa06ccb9:0x8114ea5b0ae1abb8,146493,Ghoomar,https://www.youtube.com/watch?v=6cKErCWrb44,0
21.90174,70.0327,0x39418c4eaa06ccb9:0x8114ea5b0ae1abb8,146493,Ghoomar,https://www.youtube.com/watch?v=6cKErCWrb44,0
22.80278,86.18545,0x39f5e31989f0e2b5:0xeeec8e81ce9b344,14612,Aa To Sahi,https://www.youtube.com/watch?v=AYmy75tnmTU,1
32.73569,74.86911,0x391e84bf169d3525:0xf233488eeb8fd8d,782817,Gaal Ni Kadni,https://www.youtube.com/watch?v=U65TWIP3mpQ,0
26.91962,75.78781,0x396c4adf4c57e281:0xce1c63a0cf22e09,13102512,Ghoomar,https://www.youtube.com/watch?v=6cKErCWrb44,0
23.16697,79.95006,0x3981ae1a0fb6a97d:0x44020616bc43e3b9,37990,Ghoomar,https://www.youtube.com/watch?v=6cKErCWrb44,0
22.71792,75.8333,0x3962fcad1b410ddb:0x96ec4da356240f4,9144625,Ghoomar,https://www.youtube.com/watch?v=6cKErCWrb44,0
17.38405,78.45636,0x3bcb99daeaebd2c7:0xae93b78392bafbc2,12138723,Vachinde,https://www.youtube.com/watch?v=YFfEFbC9_XQ,0
26.22983,78.17337,0x3976c5d1792291fb:0xff4fb56d65bc3adf,24699,Ghoomar,https://www.youtube.com/watch?v=6cKErCWrb44,0
28.4601,77.02635,0x390d19d582e38859:0x2cf5fe8e5c64b1e,201965,High Rated Gabru,https://www.youtube.com/watch?v=hjWf8A0YNSE,0
16.29974,80.45729,0x3a4a755cb1787785:0x9f7999dd90f1e694,83516,Naa Kallalona,https://www.youtube.com/watch?v=DVZhg9T_Fjs,0
28.66535,77.43915,0x390cf1bb41c50fdf:0xe6f06fd26a7798ba,106742,Ghoomar,https://www.youtube.com/watch?v=6cKErCWrb44,0
26.1844,91.7458,0x375a5a287f9133ff:0x2bbd1332436bde32,1542347,Galti Se Mistake,https://www.youtube.com/watch?v=05TA9jNnCdU,1
28.41124,77.31316,0x390cdc15f5a424b1:0xe4f50576c850e0f2,30081,High Rated Gabru,https://www.youtube.com/watch?v=hjWf8A0YNSE,0
23.51583,87.30801,0x39f7710b47a89171:0x429e1bdb57e009dd,361896,Aa To Sahi,https://www.youtube.com/watch?v=AYmy75tnmTU,1
19.21667,73.08333,0x3be7958ef72d8707:0x84bf6ab96e280b08,144137,Ghoomar,https://www.youtube.com/watch?v=6cKErCWrb44,0
28.65195,77.23149,0x390cfd5b347eb62d:0x37205b715389640,9736785,Gori Re,https://www.youtube.com/watch?v=p-Zq8clHK8Y,1
30.32443,78.03392,0x390929c356c888af:0x4c3562c032518799,193430,Gori Re,https://www.youtube.com/watch?v=p-Zq8clHK8Y,1
20.46497,85.87927,0x3a190d832223af81:0x22f5fa1c913be52e,48017,Laila Main Laila,https://www.youtube.com/watch?v=95I5VaR7GeU,0
11.00555,76.96612,0x3ba859af2f971cb5:0x2fc1c81e183ed282,1709137,Entammede Jimikki Kammal,https://www.youtube.com/watch?v=FXiaIH49oAU,0
30.73629,76.7884,0x390fed0be66ec96b:0xa5ff67f9527319fe,6576166,Gaal Ni Kadni,https://www.youtube.com/watch?v=U65TWIP3mpQ,0
11.86752,75.35763,0x3ba422b9b2aca753:0x380605a11ce24f6c,74539,Entammede Jimikki Kammal,https://www.youtube.com/watch?v=FXiaIH49oAU,0
22.56263,88.36304,0x39f882db4908f667:0x43e330e68f6c2cbc,3399641,Aa To Sahi,https://www.youtube.com/watch?v=AYmy75tnmTU,1
19.07283,72.88261,0x3be7c6306644edc1:0x5da4ed8f8d648c69,5604297,Ghoomar,https://www.youtube.com/watch?v=6cKErCWrb44,1
20.27241,85.83385,0x3a1909d2d5170aa5:0xfc580e2b68b33fa8,4125122,Laila Main Laila,https://www.youtube.com/watch?v=95I5VaR7GeU,0
23.25469,77.40289,0x397c428f8fd68fbd:0x2155716d572d4f8,1493547,Ghoomar,https://www.youtube.com/watch?v=6cKErCWrb44,0
19.30023,73.05881,0x3be7bd101e824aa3:0x5970a572c6d931ae,90272,Aa To Sahi,https://www.youtube.com/watch?v=AYmy75tnmTU,1
15.85212,74.50447,0x3bbf669f5095362f:0x7e34b31edcdefb5f,21615,Ghoomar,https://www.youtube.com/watch?v=6cKErCWrb44,1
28.36678,79.43167,0x39a007334d02998d:0x5b9d44cf31ee87f,7630,High Rated Gabru,https://www.youtube.com/watch?v=hjWf8A0YNSE,1
12.97194,77.59369,0x3bae1670c9b44e6d:0xf8dfc3e8517e4fe0,7947471,Entammede Jimikki Kammal,https://www.youtube.com/watch?v=FXiaIH49oAU,0
19.87757,75.34226,0x3bdb9815a369bc63:0x712d538b29a2a73e,68720,Ghoomar,https://www.youtube.com/watch?v=6cKErCWrb44,1
22.55251,72.9552,0x395e4e7efd0c8885:0xa9a0b93c0c4b5215,61998,Ghoomar,https://www.youtube.com/watch?v=6cKErCWrb44,0
31.62234,74.87534,0x391964aa569e7355:0xeea2605bee84ef7d,236758,Gaal Ni Kadni,https://www.youtube.com/watch?v=U65TWIP3mpQ,0
25.44478,81.84322,0x398534c9b20bd49f:0xa2237856ad4041a,35126,Ghoomar,https://www.youtube.com/watch?v=6cKErCWrb44,1
26.4521,74.63867,0x396be6d8fcb7cd01:0xcbaf8f12eb8100ee,62896,Ghoomar,https://www.youtube.com/watch?v=6cKErCWrb44,0
23.02579,72.58727,0x395e848aba5bd449:0x4fcedd11614f6516,8696455,Ghoomar,https://www.youtube.com/watch?v=6cKErCWrb44,0
27.18333,78.01667,0x39740d857c2f41d9:0x784aef38a9523b42,5204771,Gori Re,https://www.youtube.com/watch?v=p-Zq8clHK8Y,0
28.26689,83.96851,0x3995937bbf0376ff:0xf6cf823b25802164,230472,CHARI CHATTA PARI  Nepali Movie Song by Rajan Raj Shiwakoti   KANCHHI   Dayahang Rai   Shweta Khadka,https://www.youtube.com/watch?v=iPCQmI5yTGE,0
27.70169,85.3206,0x39eb198a307baabf:0xb5137c1bf18db1ea,1146786,Perfect,https://www.youtube.com/watch?v=2Vv-BfVoq4g,0
27.6768,84.43589,0x3994fb37e078d531:0x973f22922ea702f7,125041,CHARI CHATTA PARI  Nepali Movie Song by Rajan Raj Shiwakoti   KANCHHI   Dayahang Rai   Shweta Khadka,https://www.youtube.com/watch?v=iPCQmI5yTGE,0
56.8519,60.6122,0x43c165eaa062db4b:0xd50243d7f7567f20,360144,Розовое вино,https://www.youtube.com/watch?v=wOBnq0Ewz5k,0
57.15222,65.52722,0x43bbe15d51a3b8c7:0x9b137b6a2aa36793,211897,Тролль,https://www.youtube.com/watch?v=q--5Ht49vNY,0
56.49771,84.97437,0x432693b2b65d4c1b:0xcf0bf11d988ae72f,133303,Тролль,https://www.youtube.com/watch?v=q--5Ht49vNY,0
61.25,73.41667,0x43739773194f954d:0x231da0789201f147,149859,Тролль,https://www.youtube.com/watch?v=q--5Ht49vNY,0
53.9059,86.719,0x42d0a8b3c19b937d:0x3b6dba6a186a1407,36699,Тролль,https://www.youtube.com/watch?v=q--5Ht49vNY,0
54.99244,73.36859,0x43aafde2f601090b:0x5eefc33861a69b1a,188205,Тролль,https://www.youtube.com/watch?v=q--5Ht49vNY,0
63.19309,75.43728,0x436fa2ce334363b7:0xff8a2e7f814d6722,8059,Тролль,https://www.youtube.com/watch?v=q--5Ht49vNY,0
55.0415,82.9346,0x42dfe5e190cc4d97:0x9b3a0673e1d3e985,340781,Розовое вино,https://www.youtube.com/watch?v=wOBnq0Ewz5k,0
53.7557,87.1099,0x42d0c05757229ee5:0x230e697c7a7cd940,58752,Тролль,https://www.youtube.com/watch?v=q--5Ht49vNY,0
60.9344,76.5531,0x436d3ea933d05687:0xd611216bd7fa542d,33909,Тролль,https://www.youtube.com/watch?v=q--5Ht49vNY,0
61.09979,72.60349,0x43746534b31d6c19:0xc0beed20f0c0c930,20041,Тролль,https://www.youtube.com/watch?v=q--5Ht49vNY,0
55.45,65.33333,0x43b7bea17987e3d5:0xd7081878372ea422,54276,Тролль,https://www.youtube.com/watch?v=q--5Ht49vNY,0
56.01839,92.86717,0x5cd7afc9a1ff37e3:0xd597e1468fd647ff,202151,Тролль,https://www.youtube.com/watch?v=q--5Ht49vNY,0
55.33333,86.08333,0x42d80bb9c031ef8f:0xbf65b4b18a71364e,73052,Тролль,https://www.youtube.com/watch?v=q--5Ht49vNY,0
55.15402,61.42915,0x43c592cb104a3a8d:0xef224a2a6d1711bf,249715,Тролль,https://www.youtube.com/watch?v=q--5Ht49vNY,0
53.36056,83.76361,0x42dda1e8c72eeeab:0xb0e7bbef8d87b503,119427,Тролль,https://www.youtube.com/watch?v=q--5Ht49vNY,0
53.71556,91.42917,0x5d2c22b82d2bb843:0x197273c24754fd70,58248,Тролль,https://www.youtube.com/watch?v=q--5Ht49vNY,0
41.26465,69.21627,0x38ae8b0cc379e9c3:0xa5a9323b4aa5cb98,265883,Alamim bor,https://www.youtube.com/watch?v=pbA6leWkoRo,0
42.9,71.36667,0x38a702ddab8e77af:0x1aec1f01c48b8dec,83652,Gangnam Style,https://www.youtube.com/watch?v=9bZkp7q19f0,0
45.01556,78.37389,0x427effd42561334f:0xcb08c6315b959430,49988,Gangnam Style,https://www.youtube.com/watch?v=9bZkp7q19f0,0
45,77.91667,0x427effd42561334f:0xcb08c6315b959430,49988,Gangnam Style,https://www.youtube.com/watch?v=9bZkp7q19f0,0
42.3,69.6,0x38a8f256546681bb:0xa167b582e75b369b,222515,Gangnam Style,https://www.youtube.com/watch?v=9bZkp7q19f0,0
50.42675,80.26669,0x42f2648e149b7d9f:0x1e5a1db29895c3cf,54161,Тролль,https://www.youtube.com/watch?v=q--5Ht49vNY,0
44.85278,65.50917,0x41f7fde03751d779:0x8f2323e48cb1e04b,69748,Gangnam Style,https://www.youtube.com/watch?v=9bZkp7q19f0,0
53.21435,63.62463,0x43cc8a662ee7f78f:0xa4dfac1400644b03,83198,Тролль,https://www.youtube.com/watch?v=q--5Ht49vNY,0
54.86667,69.15,0x43b23a383d9aa3dd:0x5349226c95938f6f,64169,Тролль,https://www.youtube.com/watch?v=q--5Ht49vNY,0
52.28333,76.96667,0x42f9cad6074f811d:0x480e9e038c41819b,165313,Тролль,https://www.youtube.com/watch?v=q--5Ht49vNY,0
49.97143,82.60586,0x42eb45d0f634c9a9:0x7bfa8dab8b6404e5,72500,Тролль,https://www.youtube.com/watch?v=q--5Ht49vNY,0
53.28333,69.4,0x424c94603f492e57:0x881922d6d7545413,75023,Тролль,https://www.youtube.com/watch?v=q--5Ht49vNY,0
51.1801,71.44598,0x424580c47db54609:0x97f9148dddb19228,511826,Gangnam Style,https://www.youtube.com/watch?v=9bZkp7q19f0,0
43.25667,76.92861,0x38836e7d16c5cbab:0x3d44668fad986d76,766309,Gangnam Style,https://www.youtube.com/watch?v=9bZkp7q19f0,0
42.87,74.59,0x389eb7dc91b3c881:0x492ebaf57cdee27d,584059,I Got Love,https://www.youtube.com/watch?v=nidQCt_HEsY,0
18.67337,105.69232,0x3139ce640b5a1dad:0xf8266890856bbaa1,521927,Ngay Cuoi Em,https://www.youtube.com/watch?v=zjw1GwvQT4U,0
21.32274,105.40198,0x3134f2eb1dad94af:0x50d55a18854eee20,340351,Ngay Cuoi Em,https://www.youtube.com/watch?v=zjw1GwvQT4U,0
21.59422,105.84817,0x313526e41a2f48ff:0x9af085049fb0466f,548853,Ngay Cuoi Em,https://www.youtube.com/watch?v=zjw1GwvQT4U,0
20.45,106.34002,0x3135e4d2252e67df:0xb67aaccf0a25c439,376917,Ngay Cuoi Em,https://www.youtube.com/watch?v=zjw1GwvQT4U,0
13.98333,108,0x316c1f82022f81a3:0x2234918a6e4ab03a,236293,Ngay Cuoi Em,https://www.youtube.com/watch?v=zjw1GwvQT4U,0
11.56432,108.98858,0x3170d00efca47ebf:0x7633637b6e0f3bfa,165875,Ngay Cuoi Em,https://www.youtube.com/watch?v=zjw1GwvQT4U,0
20.43389,106.17729,0x3135e0adb8d5f1cd:0xb5f4baba00e67462,434182,Ngay Cuoi Em,https://www.youtube.com/watch?v=zjw1GwvQT4U,0
21.85264,106.76101,0x36b54e779f3306a9:0x4d0e88116ffb61b9,49590,Ngay Cuoi Em,https://www.youtube.com/watch?v=zjw1GwvQT4U,0
14.35451,108.00759,0x316bff3ec83864ed:0x38ea5406b5d91f3f,89889,Ngay Cuoi Em,https://www.youtube.com/watch?v=zjw1GwvQT4U,0
16.4619,107.59546,0x3141a115e1a7935f:0xbf3b50af70b5c7b7,277927,Ngay Cuoi Em,https://www.youtube.com/watch?v=zjw1GwvQT4U,0
20.95045,107.07336,0x314a583f825ff2c9:0xc5d143510be28d44,137573,Ngay Cuoi Em,https://www.youtube.com/watch?v=zjw1GwvQT4U,0
21.0245,105.84117,0x3135ab9bd9861ca1:0xe7887f7b72ca17a9,4452927,Ngay Cuoi Em,https://www.youtube.com/watch?v=zjw1GwvQT4U,0
20.86481,106.68345,0x314a7af39e3f1ad3:0xa5ffc85ff87a07e8,505529,Ngay Cuoi Em,https://www.youtube.com/watch?v=zjw1GwvQT4U,0
20.94099,106.33302,0x31359b46ef2fba69:0x2c3c5975d0eceb2e,531478,Ngay Cuoi Em,https://www.youtube.com/watch?v=zjw1GwvQT4U,0
16.06778,108.22083,0x314219c792252a13:0xfc14e3a044436487,524855,Ngay Cuoi Em,https://www.youtube.com/watch?v=zjw1GwvQT4U,0
11.94646,108.44193,0x317112fef20988b1:0xad5f228b672bf930,208664,Ngay Cuoi Em,https://www.youtube.com/watch?v=zjw1GwvQT4U,0
22.66568,106.25786,0x36ca643b852c0327:0xf7278f9b5a7c6921,33529,Ngay Cuoi Em,https://www.youtube.com/watch?v=zjw1GwvQT4U,0
12.66747,108.03775,0x3171f7d4216cd2fb:0x9f4a5ec2f999fb4,403396,Ngay Cuoi Em,https://www.youtube.com/watch?v=zjw1GwvQT4U,0
21.27307,106.1946,0x31356dadb70fbfe5:0xd6dbe565b8b15e5c,314371,Ngay Cuoi Em,https://www.youtube.com/watch?v=zjw1GwvQT4U,0
6.53995,101.28128,0x31b37421491e3f27:0x260223bd14f25404,766334,Panama,https://www.youtube.com/watch?v=tMmMTdc7RE0,0
17.41567,102.78589,0x31237641e81572a3:0x5ba46d1afe6c1f17,1635991,Panama,https://www.youtube.com/watch?v=tMmMTdc7RE0,0
7.19882,100.5951,0x304d3323cbb09939:0xeb807b7b87c693f1,100876,Panama,https://www.youtube.com/watch?v=tMmMTdc7RE0,0
13.54753,100.27362,0x30e2b86b5359c549:0x3eace3d1c85d4f60,574644,Panama,https://www.youtube.com/watch?v=tMmMTdc7RE0,0
13.59934,100.59675,0x30e2a74bec2c4a4d:0xfc05f3c22f32a26d,8571,Panama,https://www.youtube.com/watch?v=tMmMTdc7RE0,0
17.16116,104.14725,0x313cf32b5d43957b:0x8c02a533fa4d28b2,75581,Panama,https://www.youtube.com/watch?v=tMmMTdc7RE0,0
14.35167,100.57739,0x30e275daaebc8f83:0x47c36f90a7ff2b19,1591898,Panama,https://www.youtube.com/watch?v=tMmMTdc7RE0,0
16.82481,100.25858,0x30df97e77e746631:0x371aaafbdf6cd038,947092,Panama,https://www.youtube.com/watch?v=tMmMTdc7RE0,0
13.91301,100.49883,0x30e2836c28168d41:0xabb0fa0bacd524fe,347459,Panama,https://www.youtube.com/watch?v=tMmMTdc7RE0,0
14.97066,102.10196,0x31194cb7cce490ef:0xa0469d233ce3e50,4087912,Panama,https://www.youtube.com/watch?v=tMmMTdc7RE0,0
16.54531,104.72351,0x313dc64286565845:0xe74cacc8482dabb6,61382,Panama,https://www.youtube.com/watch?v=tMmMTdc7RE0,0
13.75398,100.50144,0x311d6032280d61f3:0x10100b25de24820,76472181,Panama,https://www.youtube.com/watch?v=tMmMTdc7RE0,0
16.44671,102.833,0x3122602b91988e2f:0x93f0805cf799cc6,4216013,Panama,https://www.youtube.com/watch?v=tMmMTdc7RE0,0
16.43281,103.50658,0x3122b50e4a5e6871:0x402b54113617020,15706,Panama,https://www.youtube.com/watch?v=tMmMTdc7RE0,0
7.00836,100.47668,0x304d2844e52c0e41:0xb36033e77dcce56e,1997276,Panama,https://www.youtube.com/watch?v=tMmMTdc7RE0,0
12.60961,102.10447,0x31048192adecbd05:0xf0e5e2b5d3162870,918824,Panama,https://www.youtube.com/watch?v=tMmMTdc7RE0,0
12.93333,100.88333,0x310295924d31d7e3:0xa97ff301a9bd10ff,3430001,Panama,https://www.youtube.com/watch?v=tMmMTdc7RE0,0
-7.80139,110.36472,0x2e7a5787bd5b6bc5:0x21723fd4d3684f71,361265,Perfect,https://www.youtube.com/watch?v=2Vv-BfVoq4g,0
-5.14861,119.43194,0x2dbee329d96c4671:0x3030bfbcaf770b0,1790331,Jaran Goyang,https://www.youtube.com/watch?v=8nA-apwq0aY,0
-5.42917,105.26111,0x2e40da46f3aa6fbf:0x3039d80b220cc40,701880,Jaran Goyang,https://www.youtube.com/watch?v=8nA-apwq0aY,0
-6.17806,106.63,0x2e69f8e853d2e38d:0x301576d14feb9c0,633957,Jaran Goyang,https://www.youtube.com/watch?v=8nA-apwq0aY,0
-7.55611,110.83167,0x2e7a16627ad11ab1:0xe7fe4e0454bc3095,63213,Perfect,https://www.youtube.com/watch?v=2Vv-BfVoq4g,0
-7.24917,112.75083,0x2dd7fbf8381ac47f:0x3027a76e352be40,6833774,Jaran Goyang,https://www.youtube.com/watch?v=8nA-apwq0aY,0
-6.99306,110.42083,0x2e708b4d3f0d024d:0x1e0432b9da5cb9f2,925556,Jaran Goyang,https://www.youtube.com/watch?v=8nA-apwq0aY,0
-0.49167,117.14583,0x2df67f9e3a5b4857:0xd9d9678dade6eae3,518320,Jaran Goyang,https://www.youtube.com/watch?v=8nA-apwq0aY,0
-0.03194,109.325,0x2e1d58f604b0799b:0x511ef9501fc9ffe3,477477,Jaran Goyang,https://www.youtube.com/watch?v=8nA-apwq0aY,0
0.51667,101.44167,0x31d5ab80690ee7b1:0x94dde92c3823dbe4,505818,Bukti,https://www.youtube.com/watch?v=s9NoBV_7yVI,0
-0.90833,119.87083,0x2d8bee99987e53fd:0x3030bfbcaf77160,358275,Bukti,https://www.youtube.com/watch?v=s9NoBV_7yVI,0
-2.91673,104.7458,0x2e3b75e8fc27a3e3:0x3039d80b220d0c0,730782,Jaran Goyang,https://www.youtube.com/watch?v=8nA-apwq0aY,0
-0.94924,100.35427,0x2fd4b942e2b117bb:0xb8468cb5c3046ba5,365170,Bukti,https://www.youtube.com/watch?v=s9NoBV_7yVI,0
-8.58333,116.11667,0x2dcdbf5f22de1ef1:0x3030bfbcaf7d0d0,264450,Jaran Goyang,https://www.youtube.com/watch?v=8nA-apwq0aY,0
1.48218,124.84892,0x32879ef9ffb30fd3:0x3030bfbcaf77280,182939,Perfect,https://www.youtube.com/watch?v=2Vv-BfVoq4g,0
-7.9797,112.6304,0x2dd62822063dc2fb:0x78879446481a4da2,572985,Jaran Goyang,https://www.youtube.com/watch?v=8nA-apwq0aY,0
-7.81667,112.01667,0x2e78570dfd6e0647:0x25037b968333d9b2,347133,Jaran Goyang,https://www.youtube.com/watch?v=8nA-apwq0aY,0
-6.21462,106.84513,0x2e69f3e945e34b9d:0x100c5e82dd4b820,15652645,Jaran Goyang,https://www.youtube.com/watch?v=8nA-apwq0aY,0
-7.7625,110.43167,0x2e69ec0828bcde9f:0x301576d150524f0,309767,Jaran Goyang,https://www.youtube.com/watch?v=8nA-apwq0aY,0
-6.4,106.81861,0x2e69ec0828bcde9f:0x301576d150524f0,309767,Jaran Goyang,https://www.youtube.com/watch?v=8nA-apwq0aY,0
-8.65,115.21667,0x2dd2409b0e5e80db:0xe27334e8ccb9374a,448440,Jaran Goyang,https://www.youtube.com/watch?v=8nA-apwq0aY,0
-6.59444,106.78917,0x2e69c44a0cd6aab5:0x301576d14feb9a0,189541,Jaran Goyang,https://www.youtube.com/watch?v=8nA-apwq0aY,0
-6.2349,106.9896,0x2e698c6900964f69:0xd00495351896398,872557,Jaran Goyang,https://www.youtube.com/watch?v=8nA-apwq0aY,0
-3.31987,114.59075,0x2de4209aa1eec961:0x26030bfcc09204d2,315227,Jaran Goyang,https://www.youtube.com/watch?v=8nA-apwq0aY,0
-6.92222,107.60694,0x2e68e6398252477f:0x146a1f93d3e815b2,3158679,Jaran Goyang,https://www.youtube.com/watch?v=8nA-apwq0aY,0
-1.26753,116.82887,0x2df14710964d9c91:0xcaa6ec96c2aea6d2,137924,Jaran Goyang,https://www.youtube.com/watch?v=8nA-apwq0aY,0
-7.61278,110.78389,0x40307d6bd6211cf9:0x343f6b5e7ae56c6b,1771104,Vasif Azimov Derdimi Dinle 2017,https://www.youtube.com/watch?v=gYGuiuVgse4,0
17.96667,102.6,0x3124688606ed7b21:0x1f93b18618c1eedf,3777152,Panama,https://www.youtube.com/watch?v=tMmMTdc7RE0,0
19.88601,102.13503,0x312f2a3f413d1ba3:0xac9749a9608e6a56,60309,Panama,https://www.youtube.com/watch?v=tMmMTdc7RE0,0
22.61626,120.31333,0x346e43517a7a741b:0x4826a24a54732a37,809371,Wo Men Bu Yi Yang,https://www.youtube.com/watch?v=ekDzlSB1p28,0
6.91028,122.07389,0x32506a09d96fc175:0x35526ebbce01e7a2,35411,Perfect,https://www.youtube.com/watch?v=2Vv-BfVoq4g,0
14.5243,121.0792,0x3397cf4a54fe3001:0x2fae7af0a998d2ad,225032,Perfect,https://www.youtube.com/watch?v=2Vv-BfVoq4g,0
14.31222,121.11139,0x3397d9b37741cb8b:0x6190465ce35ff477,368233,Titibo-Tibo,https://www.youtube.com/watch?v=Cp_7VA7076I,0
15.03425,120.68445,0x3396f79f47a8aadb:0x2c4be1dddb81922a,129293,Perfect,https://www.youtube.com/watch?v=2Vv-BfVoq4g,0
14.6488,121.0509,0x3397ba0942ef7375:0x4a9a32d9fe083d40,9968926,Perfect,https://www.youtube.com/watch?v=2Vv-BfVoq4g,0
14.82917,120.28278,0x3396711b9c32216b:0xa080c3d36f2963a7,492102,Perfect,https://www.youtube.com/watch?v=2Vv-BfVoq4g,0
13.61917,123.18139,0x33a18cad50331fcb:0x1dd856f8b79915ca,75566,Perfect,https://www.youtube.com/watch?v=2Vv-BfVoq4g,0
14.6042,120.9822,0x3397ca03571ec38b:0x69d1d5751069c11f,3756616,Perfect,https://www.youtube.com/watch?v=2Vv-BfVoq4g,0
14.5832,121.0409,0x3397c835c77b9b79:0xdc4947c8b9d237f8,194472,Perfect,https://www.youtube.com/watch?v=2Vv-BfVoq4g,0
14.55027,121.03269,0x3397c90264a0ed01:0x2b066ed57830cace,3539212,Perfect,https://www.youtube.com/watch?v=2Vv-BfVoq4g,0
13.9411,121.1631,0x33bd13576170055f:0xe6da25b39082662a,441598,Perfect,https://www.youtube.com/watch?v=2Vv-BfVoq4g,0
13.14125,123.74073,0x33a101687e9bf8a7:0x305252e78d14537a,103814,Perfect,https://www.youtube.com/watch?v=2Vv-BfVoq4g,0
14.45056,120.98278,0x3397ce0835972b6f:0xff33295d281774b,322315,Perfect,https://www.youtube.com/watch?v=2Vv-BfVoq4g,0
14.42972,120.93667,0x3397d252b84f3c11:0x38b0f2e1f833e8df,161697,Perfect,https://www.youtube.com/watch?v=2Vv-BfVoq4g,0
10.69694,122.56444,0x33aee56fe538d781:0xe8250cd6bc30a488,235383,Perfect,https://www.youtube.com/watch?v=2Vv-BfVoq4g,0
8.25,124.4,0x325579b328c9540d:0xe6e208aba2f0d03b,264146,Perfect,https://www.youtube.com/watch?v=2Vv-BfVoq4g,0
8.2289,124.24344,0x325579b328c9540d:0xe6e208aba2f0d03b,264146,Perfect,https://www.youtube.com/watch?v=2Vv-BfVoq4g,0
6.11278,125.17167,0x32f79cf31aca6663:0xcc2a0e32287d6748,329770,Perfect,https://www.youtube.com/watch?v=2Vv-BfVoq4g,0
7.07306,125.61278,0x32f96d9f519e327f:0xb53a24589f79c573,3179900,Perfect,https://www.youtube.com/watch?v=2Vv-BfVoq4g,0
14.32944,120.93667,0x3397d5b87c111e25:0xab8cb698f840321f,652467,Perfect,https://www.youtube.com/watch?v=2Vv-BfVoq4g,0
16.04313,120.33325,0x33915d56ad32b305:0x1b74411960f5054a,96830,Perfect,https://www.youtube.com/watch?v=2Vv-BfVoq4g,0
10.31672,123.89071,0x33a999258dcd2dfd:0x4c34030cdbd33507,3892962,Perfect,https://www.youtube.com/watch?v=2Vv-BfVoq4g,0
14.64953,120.96788,0x3397b1b519841b5f:0x5e770e225042d1a,974036,Perfect,https://www.youtube.com/watch?v=2Vv-BfVoq4g,0
14.21167,121.16528,0x33bd63655ce077d3:0x39dd1f59c6edaced,486297,Perfect,https://www.youtube.com/watch?v=2Vv-BfVoq4g,0
8.48222,124.64722,0x32fff2d9810e9e81:0x2edcd5b84a6de2a2,709745,Perfect,https://www.youtube.com/watch?v=2Vv-BfVoq4g,0
8.94917,125.54361,0x3301e998b1704fcf:0x85e95810384ea2d6,40588,Perfect,https://www.youtube.com/watch?v=2Vv-BfVoq4g,0
14.34267,121.08071,0x3397d70cc905e489:0xdbb7938dd87f5563,52129,Perfect,https://www.youtube.com/watch?v=2Vv-BfVoq4g,0
16.41639,120.59306,0x3391a16879def13f:0x8edef534be3a75c0,1386725,Perfect,https://www.youtube.com/watch?v=2Vv-BfVoq4g,0
14.45903,120.92903,0x3397d2407b04433f:0x779154cd6b3d2d4c,1535119,Perfect,https://www.youtube.com/watch?v=2Vv-BfVoq4g,0
10.66667,122.95,0x33aed1aede61785b:0xea7972541b89f76b,940806,Perfect,https://www.youtube.com/watch?v=2Vv-BfVoq4g,0
14.62578,121.12251,0x3397bf0c8d8310c5:0x34dc8e5a7fbf80a3,996370,Perfect,https://www.youtube.com/watch?v=2Vv-BfVoq4g,0
15.15,120.58333,0x3396f286eed2e61f:0x3ded82248ad9b436,849107,Perfect,https://www.youtube.com/watch?v=2Vv-BfVoq4g,0
1.4655,103.7578,0x31da12c6d36b3a27:0xd5f4b21db593d4f5,438934,Perfect,https://www.youtube.com/watch?v=2Vv-BfVoq4g,0
3.08507,101.53281,0x31cc4d8b932abdc7:0x6e65e085abb091c5,379655,Perfect,https://www.youtube.com/watch?v=2Vv-BfVoq4g,0
3.03333,101.45,0x31cc534c4ffe81cf:0xeb61f5772fd54514,166251,Havana,https://www.youtube.com/watch?v=BQ0mxQXmLsk,0
5.9749,116.0724,0x323b6995e6a6aba7:0xf182336a16947a7e,459518,Perfect,https://www.youtube.com/watch?v=2Vv-BfVoq4g,0
4.5841,101.0829,0x31caec79f34033e3:0x8fdc9f466952e859,342108,Havana,https://www.youtube.com/watch?v=BQ0mxQXmLsk,0
5.3302,103.1408,0x31b7099e976e862f:0x1bc0ee85cb232492,169401,Havana,https://www.youtube.com/watch?v=BQ0mxQXmLsk,0
2.196,102.2405,0x31d1ee278e8c65dd:0x32a7281769e016a,202210,Havana,https://www.youtube.com/watch?v=BQ0mxQXmLsk,0
2.7297,101.9381,0x31cdde05ead5d09f:0x563c38f6157031ea,153720,Havana,https://www.youtube.com/watch?v=BQ0mxQXmLsk,0
5.36301,100.4667,0x304ac8e598b893bf:0x763116f720d28c2a,31835,Perfect,https://www.youtube.com/watch?v=2Vv-BfVoq4g,0
5.41123,100.33543,0x304ac397ad2b7bd5:0x239ae45978a9b934,5220,Perfect,https://www.youtube.com/watch?v=2Vv-BfVoq4g,0
3.10726,101.60671,0x31cc4ececc1c7c97:0x524c8e31e929bc76,444272,Perfect,https://www.youtube.com/watch?v=2Vv-BfVoq4g,0
3.1412,101.68653,0x31cc49c701efeae7:0xf4d98e5b2f1c287d,5350388,Havana,https://www.youtube.com/watch?v=BQ0mxQXmLsk,0
3.8077,103.326,0x31c8b9f8e826e005:0xa44c16aafb214f62,181409,Havana,https://www.youtube.com/watch?v=BQ0mxQXmLsk,0
5.647,100.48772,0x304b29cd930f8bcf:0xcbb5708a39597903,56962,Havana,https://www.youtube.com/watch?v=BQ0mxQXmLsk,0
1.55,110.33333,0x31fb0784258cbf11:0xd37257591ab17e72,344927,Perfect,https://www.youtube.com/watch?v=2Vv-BfVoq4g,0
6.12104,100.36014,0x304b44974ac2ef47:0x570491a0e03b1b7b,150011,Havana,https://www.youtube.com/watch?v=BQ0mxQXmLsk,0
6.13328,102.2386,0x31b6afc27a0ea2e1:0xd3fb8d8332a81530,76546,Perfect,https://www.youtube.com/watch?v=2Vv-BfVoq4g,0
4.39928,113.99163,0x321941fc74729dcf:0x2e911b344f6c4816,71372,Perfect,https://www.youtube.com/watch?v=2Vv-BfVoq4g,0
22.27832,114.17469,0x3403e2eda332980f:0xf08ab3badbeac97c,1448653,LIKEY,https://www.youtube.com/watch?v=V2hlQkVJZhE,0
4.89035,114.94006,0x3222f5b0540b731f:0xeeacf8c47cbae84b,247913,Perfect,https://www.youtube.com/watch?v=2Vv-BfVoq4g,0
11.56245,104.91601,0x3109513dc76a6be3:0x9c010ee85ab525bb,9313414,Panama,https://www.youtube.com/watch?v=tMmMTdc7RE0,0
13.36179,103.86056,0x3110169a8c91a879:0xa940aaf93ee5bbfa,368970,Panama,https://www.youtube.com/watch?v=tMmMTdc7RE0,0
35.34199,129.03358,0x356897628e7bb139:0xedc6277c8278d292,167143,Peek-A-Boo,https://www.youtube.com/watch?v=6uJf2IT2Zh8,0
37.83311,127.06169,0x357cc3d8c787cb51:0x1ec3ce27f142a6ff,106347,Peek-A-Boo,https://www.youtube.com/watch?v=6uJf2IT2Zh8,0
37.35139,127.94528,0x356375043f7b1dd3:0x5e563ee5d9acf7a5,209638,Peek-A-Boo,https://www.youtube.com/watch?v=6uJf2IT2Zh8,0
35.53722,129.31667,0x35662e8be2b2de81:0x7083fa7333d93101,578546,Peek-A-Boo,https://www.youtube.com/watch?v=6uJf2IT2Zh8,0
37.7415,127.0474,0x357cc70e2e6f8c4d:0xe147f896f2f59cac,248461,Peek-A-Boo,https://www.youtube.com/watch?v=6uJf2IT2Zh8,0
36.32139,127.41972,0x356548d7ba4a6601:0xd196d69d988ad3b5,895769,Peek-A-Boo,https://www.youtube.com/watch?v=6uJf2IT2Zh8,0
35.87028,128.59111,0x3565e3b8b2efadd5:0xba92e029a0382e30,1410696,Peek-A-Boo,https://www.youtube.com/watch?v=6uJf2IT2Zh8,0
37.29111,127.00889,0x357b430a20764611:0xf1373002ee5db4c9,730769,Peek-A-Boo,https://www.youtube.com/watch?v=6uJf2IT2Zh8,0
34.94808,127.48947,0x356e0387a828242d:0x1d0e5aeed8449713,184413,Peek-A-Boo,https://www.youtube.com/watch?v=6uJf2IT2Zh8,0
37.566,126.9784,0x357ca28b61c565cd:0x858aedb4e4ea83eb,7597609,Peek-A-Boo,https://www.youtube.com/watch?v=6uJf2IT2Zh8,0
36.78167,126.45222,0x357a5b9b49700ab3:0x10decf22dc974ee9,82436,Peek-A-Boo,https://www.youtube.com/watch?v=6uJf2IT2Zh8,0
38.20701,128.59181,0x5fd8bcf47b703db1:0x7af4c058b4253fc8,44013,Peek-A-Boo,https://www.youtube.com/watch?v=6uJf2IT2Zh8,0
35.10278,129.04028,0x3568eb6de823cd35:0x35d8cb74247108a7,2095576,Peek-A-Boo,https://www.youtube.com/watch?v=6uJf2IT2Zh8,0
37.49889,126.78306,0x357b62ae068837ef:0x81da578d2f62ac6a,411756,Peek-A-Boo,https://www.youtube.com/watch?v=6uJf2IT2Zh8,0
36.02917,129.36481,0x3566fdbac093c233:0xc8e2367ce884d47e,237617,Peek-A-Boo,https://www.youtube.com/watch?v=6uJf2IT2Zh8,0
37.15222,127.07056,0x357b46d7b1c458fb:0x2a73ca8b07f227f4,113792,Peek-A-Boo,https://www.youtube.com/watch?v=6uJf2IT2Zh8,0
36.78361,127.00417,0x357ade153e709f23:0xddf839eaf2a56c6a,195044,Peek-A-Boo,https://www.youtube.com/watch?v=6uJf2IT2Zh8,0
34.81282,126.39181,0x3573a4a7a6f3bc5f:0xbbb625ae00c88694,163650,Peek-A-Boo,https://www.youtube.com/watch?v=6uJf2IT2Zh8,0
35.82333,128.73778,0x35660935678aed73:0x6f11ae0ccb8b2662,146078,Peek-A-Boo,https://www.youtube.com/watch?v=6uJf2IT2Zh8,0
35.84278,129.21167,0x35664e46f80d031d:0x371596eecfd0c809,113366,Peek-A-Boo,https://www.youtube.com/watch?v=6uJf2IT2Zh8,0
34.97528,127.58917,0x356e6b5d06f58487:0xd5c0444fa37e899d,85794,Peek-A-Boo,https://www.youtube.com/watch?v=6uJf2IT2Zh8,0
37.41,127.25722,0x357cab51127605cf:0x2b6e0b099ba14eaa,148454,Peek-A-Boo,https://www.youtube.com/watch?v=6uJf2IT2Zh8,0
35.15472,126.91556,0x3571892301f5a7af:0x5f4d2ed0125f548,911931,Peek-A-Boo,https://www.youtube.com/watch?v=6uJf2IT2Zh8,0
37.5986,127.1394,0x357cb0afeb55f6ab:0xaaadcbd2b720612c,101287,Peek-A-Boo,https://www.youtube.com/watch?v=6uJf2IT2Zh8,0
35.97861,126.71139,0x35705c05a1562f99:0xf3d4f82119275a94,157561,Peek-A-Boo,https://www.youtube.com/watch?v=6uJf2IT2Zh8,0
36.1136,128.336,0x3565c0cd3741330b:0x9d85dec1dd777c19,262285,Peek-A-Boo,https://www.youtube.com/watch?v=6uJf2IT2Zh8,0
37.65639,126.835,0x357c908309d05a09:0xd0a0d71a3c16ef7f,590689,Peek-A-Boo,https://www.youtube.com/watch?v=6uJf2IT2Zh8,0
36.45556,127.12472,0x357ab85367c7f16f:0x88063cf1b992d1f9,116096,Peek-A-Boo,https://www.youtube.com/watch?v=6uJf2IT2Zh8,0
35.23417,128.88111,0x3568b86ffe9433cd:0xcd9ec76258631b1,582022,Peek-A-Boo,https://www.youtube.com/watch?v=6uJf2IT2Zh8,0
37.75556,128.89611,0x3561e5e1954f0f5b:0x80b7c6519c3d1d46,119714,Peek-A-Boo,https://www.youtube.com/watch?v=6uJf2IT2Zh8,0
35.94389,126.95444,0x357014808d39424d:0xeb103859b8528a3c,174161,Peek-A-Boo,https://www.youtube.com/watch?v=6uJf2IT2Zh8,0
37.45646,126.70515,0x35796f2596138247:0x7d37fd902cb76142,1650785,Peek-A-Boo,https://www.youtube.com/watch?v=6uJf2IT2Zh8,0
37.27917,127.4425,0x3564a61400916683:0x598fcda12914e460,129836,Peek-A-Boo,https://www.youtube.com/watch?v=6uJf2IT2Zh8,0
37.20682,126.8169,0x357b12ffd15df621:0x3d143d45e2bee5a7,384145,Peek-A-Boo,https://www.youtube.com/watch?v=6uJf2IT2Zh8,0
37.87472,127.73417,0x3562e4261feffbab:0x75cb23d8e3883504,180043,Peek-A-Boo,https://www.youtube.com/watch?v=6uJf2IT2Zh8,0
35.82194,127.14889,0x357023430316d863:0xc7bc17e091c3429a,445443,Peek-A-Boo,https://www.youtube.com/watch?v=6uJf2IT2Zh8,0
36.63722,127.48972,0x356527ade464af7d:0xfc99789c7c6a8889,442326,Peek-A-Boo,https://www.youtube.com/watch?v=6uJf2IT2Zh8,0
36.8065,127.1522,0x357b2815bedfaee5:0xfafda725a60ba9d4,403906,Peek-A-Boo,https://www.youtube.com/watch?v=6uJf2IT2Zh8,0
35.19278,128.08472,0x356efc0b529e034d:0xf440c70d9a804198,191347,Peek-A-Boo,https://www.youtube.com/watch?v=6uJf2IT2Zh8,0
33.50972,126.52194,0x350ce0858a6d79fd:0x4b9a8869e1919ce2,262318,Peek-A-Boo,https://www.youtube.com/watch?v=6uJf2IT2Zh8,0
37.3925,126.92694,0x357b60c42c3d5031:0x76279798d55e3bb5,383407,Peek-A-Boo,https://www.youtube.com/watch?v=6uJf2IT2Zh8,0
37.01083,127.27028,0x3564caa5e76659c1:0x9663a7e4a6cc36eb,98739,Peek-A-Boo,https://www.youtube.com/watch?v=6uJf2IT2Zh8,0
37.32361,126.82194,0x357b0b07731d9ba7:0x702128da3e631ae9,438659,Peek-A-Boo,https://www.youtube.com/watch?v=6uJf2IT2Zh8,0
36.56636,128.72275,0x3566a13fee42c953:0xabee2e1f04958e6c,83560,Peek-A-Boo,https://www.youtube.com/watch?v=6uJf2IT2Zh8,0
35.28361,139.66722,0x60183f970a869e57:0x5220e231a4d9673f,33676,LIKEY,https://www.youtube.com/watch?v=V2hlQkVJZhE,0
35.43333,139.65,0x60185becbbb66509:0x69683f660285400,1329361,Dancing Hero,https://www.youtube.com/watch?v=,0
34.96667,136.61667,0x600392853152b2a5:0xdeff06ba7db83931,67733,LIKEY,https://www.youtube.com/watch?v=V2hlQkVJZhE,0
34.18333,131.46667,0x354495c54c9efd75:0x263156320e32adf7,31784,LIKEY,https://www.youtube.com/watch?v=V2hlQkVJZhE,0
36.56667,139.88333,0x601f666c9356803b:0xc9357749798654c2,113085,Dancing Hero,https://www.youtube.com/watch?v=,0
34.73333,136.51667,0x60040f81cd869f5b:0xe47afd5b8431ac78,37732,LIKEY,https://www.youtube.com/watch?v=V2hlQkVJZhE,0
35.08333,137.15,0x6004a86772f821e3:0x84c650390ac80a88,53302,LIKEY,https://www.youtube.com/watch?v=V2hlQkVJZhE,0
34.78244,135.46932,0x6000e5334557fe35:0x77f0a5585071d563,39151,LIKEY,https://www.youtube.com/watch?v=V2hlQkVJZhE,0
36.7,137.21667,0x5ff7f20918176af5:0x6d5abf97791f1de3,74197,Dancing Hero,https://www.youtube.com/watch?v=,0
35.5,134.23333,0x355596c9a0846f89:0x3847638629e55456,32465,LIKEY,https://www.youtube.com/watch?v=V2hlQkVJZhE,0
34.06667,134.56667,0x35530d02da27ec53:0xb57d6808208d85f7,51614,LIKEY,https://www.youtube.com/watch?v=V2hlQkVJZhE,0
35.79916,139.46903,0x6018ddc190683269:0x5d5263fd8075d024,34082,LIKEY,https://www.youtube.com/watch?v=V2hlQkVJZhE,0
34.84833,135.61678,0x600102620847b5a7:0xbe4451ac28f4201d,52330,LIKEY,https://www.youtube.com/watch?v=V2hlQkVJZhE,0
36.33333,139.01667,0x601e889b70261815:0xed6a8c78b096bf51,64753,Dancing Hero,https://www.youtube.com/watch?v=,0
34.79936,135.35697,0x60005f7a56557af9:0xc7a7391c822060c4,34750,LIKEY,https://www.youtube.com/watch?v=V2hlQkVJZhE,0
34.33333,134.05,0x3553c1c5548d47df:0x72f429d49c1ef71b,74238,Dancing Hero,https://www.youtube.com/watch?v=,0
34.76143,135.51567,0x6000e4a6bda73c45:0x527cc777508a7d95,39290,LIKEY,https://www.youtube.com/watch?v=V2hlQkVJZhE,0
34.98333,138.38333,0x601bbf207a58856f:0xadc77626a8878101,97024,LIKEY,https://www.youtube.com/watch?v=V2hlQkVJZhE,0
33.95,130.95,0x3543755b556f5fa7:0x7101c1498e790a73,34078,LIKEY,https://www.youtube.com/watch?v=V2hlQkVJZhE,0
34.58333,135.46667,0x6000da67aec56b5b:0xbeb7d49ef698a420,109493,LIKEY,https://www.youtube.com/watch?v=V2hlQkVJZhE,0
33.23333,130.3,0x3541c8fb1e34f1eb:0xd790a2fc50f343d0,61136,LIKEY,https://www.youtube.com/watch?v=V2hlQkVJZhE,0
35,135.86667,0x600174ece1b10c2d:0x8bccbbd569908646,74659,LIKEY,https://www.youtube.com/watch?v=V2hlQkVJZhE,0
34.69374,135.50218,0x6000e6553406e2e1:0xc55bc16ee46a2fe7,2205635,Dancing Hero,https://www.youtube.com/watch?v=,0
34.65,133.93333,0x355405712ffba04f:0x10c3802660695766,151224,LIKEY,https://www.youtube.com/watch?v=V2hlQkVJZhE,0
33.23333,131.6,0x35469c069d5fbc8b:0x85af152067235eda,103697,LIKEY,https://www.youtube.com/watch?v=V2hlQkVJZhE,0
37.88637,139.00589,0x5ff4c5c255c7c0f7:0xf1509bcbc990230d,182775,LIKEY,https://www.youtube.com/watch?v=V2hlQkVJZhE,0
34.68505,135.80485,0x600137c578a70cc1:0x4afed9b0b9492622,74016,LIKEY,https://www.youtube.com/watch?v=V2hlQkVJZhE,0
26.21667,127.68333,0x34e5697141a6b58b:0x2cd8aff616585e98,199055,LIKEY,https://www.youtube.com/watch?v=V2hlQkVJZhE,0
35.18147,136.90641,0x6003709e107b2365:0x2a9622d4e8ceb352,867650,Dancing Hero,https://www.youtube.com/watch?v=,0
32.75,129.88333,0x35154c548418da67:0x8bf7a6edca32cc93,99965,LIKEY,https://www.youtube.com/watch?v=V2hlQkVJZhE,0
36.65,138.18333,0x601d805de6344499:0xf128a974072892c8,75242,Dancing Hero,https://www.youtube.com/watch?v=,0
31.91667,131.41667,0x3538b5f6c768a27b:0xd4ce23b1878ee7d,98008,LIKEY,https://www.youtube.com/watch?v=V2hlQkVJZhE,0
36.23333,137.96667,0x601d1400e84368c7:0xcb8d6d363210cddd,40846,Dancing Hero,https://www.youtube.com/watch?v=,0
35.48333,133.05,0x35570388e957fd25:0x7f8a8df21bdacb9c,46917,LIKEY,https://www.youtube.com/watch?v=V2hlQkVJZhE,0
35.77995,139.90144,0x6018837c157a353d:0xe9a6e851b12a2799,43958,LIKEY,https://www.youtube.com/watch?v=V2hlQkVJZhE,0
36.4,139.08333,0x601ef3ddea67b0ad:0xdf83af6546ce3e54,52420,Dancing Hero,https://www.youtube.com/watch?v=,0
35.02107,135.75385,0x6001a8d6cd3cc3f1:0xc0961d366bbb1d3d,336847,LIKEY,https://www.youtube.com/watch?v=V2hlQkVJZhE,0
35.01667,135.96667,0x6001724567c96bfb:0x684c7c99280299ed,22109,LIKEY,https://www.youtube.com/watch?v=V2hlQkVJZhE,0
34.58333,133.76667,0x355159b83d13161d:0x3b60170516ac23e,31207,LIKEY,https://www.youtube.com/watch?v=V2hlQkVJZhE,0
32.80589,130.69181,0x3540f414acf11b4f:0x1a51ced19bcf5c31,181087,LIKEY,https://www.youtube.com/watch?v=V2hlQkVJZhE,0
35.89035,139.78916,0x60189617e8b4d773:0xceda2ebeadc3fbc2,35915,LIKEY,https://www.youtube.com/watch?v=V2hlQkVJZhE,0
35.66667,138.56667,0x601bf850977851a9:0xc276c11755ca7309,51899,Dancing Hero,https://www.youtube.com/watch?v=,0
33.55,133.53333,0x354e1f3322084dd7:0x2f175a433fde642a,60893,LIKEY,https://www.youtube.com/watch?v=V2hlQkVJZhE,0
34.6913,135.183,0x60007d812aed89d9:0xc7126106c2f670f4,310890,LIKEY,https://www.youtube.com/watch?v=V2hlQkVJZhE,0
33.85181,130.85034,0x3543c76849636da9:0x388ab930297e38e7,135176,LIKEY,https://www.youtube.com/watch?v=V2hlQkVJZhE,0
35.52056,139.71722,0x60185f7b01bd5057:0x88c9f317cacfd3cb,135386,LIKEY,https://www.youtube.com/watch?v=V2hlQkVJZhE,0
35.80521,139.71072,0x6018948a0c9ceef7:0xb7b232bac1bbd9a0,74337,LIKEY,https://www.youtube.com/watch?v=V2hlQkVJZhE,0
35.90861,139.48528,0x6018da49f61066b7:0xdfd5d75b60b9af9e,39996,LIKEY,https://www.youtube.com/watch?v=V2hlQkVJZhE,0
35.86224,139.97732,0x60189d534644f8c5:0x2f719703fd7ae716,49278,LIKEY,https://www.youtube.com/watch?v=V2hlQkVJZhE,0
36.6,136.61667,0x5ff83655468566c3:0x8df155c46fde6215,115423,LIKEY,https://www.youtube.com/watch?v=V2hlQkVJZhE,0
34.76943,134.82905,0x355527e23db24381:0x35e2e572b0ee379f,34917,LIKEY,https://www.youtube.com/watch?v=V2hlQkVJZhE,0
31.56667,130.55,0x353e615200e3c53d:0x9adcfdad5d5c5885,142581,LIKEY,https://www.youtube.com/watch?v=V2hlQkVJZhE,0
34.41667,135.31667,0x6000c9b2ff83062b:0x6fe5dede9d4ff6ea,30327,LIKEY,https://www.youtube.com/watch?v=V2hlQkVJZhE,0
34.4,132.45,0x355a9908eef34fbb:0x7e4ce50cfc1f772,226611,LIKEY,https://www.youtube.com/watch?v=V2hlQkVJZhE,0
34.81352,135.64914,0x60011b88c5dd7c87:0xa48a7fa837e1a5a4,55009,LIKEY,https://www.youtube.com/watch?v=V2hlQkVJZhE,0
34.81667,134.7,0x3554e22d19ebd8d1:0xdbab934d716b0b69,62980,LIKEY,https://www.youtube.com/watch?v=V2hlQkVJZhE,0
34.7,137.73333,0x601b162de5079791:0x67a49b39e2edf623,149154,Dancing Hero,https://www.youtube.com/watch?v=,0
35.65583,139.32389,0x60191eb9b729f437:0x27d80e549d4e1c62,69417,LIKEY,https://www.youtube.com/watch?v=V2hlQkVJZhE,0
35.42291,136.76039,0x6003abd3dcb01f7f:0x94fbfc3b6d00644c,107286,LIKEY,https://www.youtube.com/watch?v=V2hlQkVJZhE,0
34.48333,133.36667,0x355110bc9a104433:0x945c406e36701b7,46709,LIKEY,https://www.youtube.com/watch?v=V2hlQkVJZhE,0
33.6,130.41667,0x3541eda1e9848429:0xf60a729936398783,529614,LIKEY,https://www.youtube.com/watch?v=V2hlQkVJZhE,0
36.06443,136.22257,0x5ff8beaf3b742b4f:0xa41b1476580dbbbd,67187,LIKEY,https://www.youtube.com/watch?v=V2hlQkVJZhE,0
35.34926,139.47666,0x6018518de700c4f5:0x347bbe959a029ba8,39742,LIKEY,https://www.youtube.com/watch?v=V2hlQkVJZhE,0
34.71667,135.41667,0x6000efb488f2c329:0x93978126e69f7a8d,56282,LIKEY,https://www.youtube.com/watch?v=V2hlQkVJZhE,0
34.76062,127.66215,0x356d941f1f8babaf:0x8902d9dae5886e8b,140548,Peek-A-Boo,https://www.youtube.com/watch?v=6uJf2IT2Zh8,0
37.43861,127.13778,0x357ca7f1701220bf:0x50315666bce397d4,514995,Peek-A-Boo,https://www.youtube.com/watch?v=6uJf2IT2Zh8,0
37.63667,127.21417,0x357cb5f363b117ff:0xeae1727d1666f9d3,368360,Peek-A-Boo,https://www.youtube.com/watch?v=6uJf2IT2Zh8,0
34.23333,135.16667,0x6000b28519bc7e79:0x8fce76d4fd4f71ca,79725,LIKEY,https://www.youtube.com/watch?v=V2hlQkVJZhE,0
33.83916,132.76574,0x354fe532dd43389d:0x71f312a6246632a7,98848,Dancing Hero,https://www.youtube.com/watch?v=,0
37.47722,126.86639,0x357b63d479a35d91:0xd0d74160579db915,135122,Peek-A-Boo,https://www.youtube.com/watch?v=6uJf2IT2Zh8,0
62.03389,129.73306,0x5bf63939a0d2c47d:0x69b4c4b35cafa2fb,69933,Розовое вино,https://www.youtube.com/watch?v=wOBnq0Ewz5k,0
43.10562,131.87353,0x5fb39cba5249d485:0x186704d4dd967e35,130496,Розовое вино,https://www.youtube.com/watch?v=wOBnq0Ewz5k,0
43.80291,131.94578,0x5fb2e82c7a30123d:0x3ea6992838cb31b3,22706,Тролль,https://www.youtube.com/watch?v=q--5Ht49vNY,0
51.82721,107.60627,0x5dafdb196f6730cb:0x38da928c03aec496,75147,Тролль,https://www.youtube.com/watch?v=q--5Ht49vNY,0
50.55034,137.00995,0x5ee85089d87fcf4b:0x63a4cf4a513c2e68,53212,Тролль,https://www.youtube.com/watch?v=q--5Ht49vNY,0
52.29778,104.29639,0x5da83ad353e2f665:0x31d6cd1456d8e94e,230364,Тролль,https://www.youtube.com/watch?v=q--5Ht49vNY,0
52.03171,113.50087,0x5dca351539f218ed:0x76432ffaf2ae72d8,85646,Тролль,https://www.youtube.com/watch?v=q--5Ht49vNY,0
50.27961,127.5405,0x5e8947a60aa8bf37:0x356038b921707c61,62756,Тролль,https://www.youtube.com/watch?v=q--5Ht49vNY,0
47.90771,106.88324,0x5d96925be2b18aab:0xe606927864a1847f,654530,Shape of You,https://www.youtube.com/watch?v=JGwWNGJdvx8,0
-31.95224,115.8614,0x2a32966cdb47733d:0x304f0b535df55d0,670749,Perfect,https://www.youtube.com/watch?v=2Vv-BfVoq4g,0
-34.92866,138.59863,0x6ab735c7c526b33f:0x4033654628ec640,468022,Perfect,https://www.youtube.com/watch?v=2Vv-BfVoq4g,0
38.23333,140.36667,0x5f8bca074b9d6e51:0xa6b2924e0dbf31eb,73986,Dancing Hero,https://www.youtube.com/watch?v=,0
36.2,140.1,0x60220bebeb830b69:0x6a50beac31c4b783,52987,Dancing Hero,https://www.youtube.com/watch?v=,0
38.26667,140.86667,0x5f8a2aee30cd55d3:0xba2579e0b846b1ee,207499,Dancing Hero,https://www.youtube.com/watch?v=,0
39.7,141.15,0x5f85755195bcfe01:0x1f3c2dde5b005696,76017,Dancing Hero,https://www.youtube.com/watch?v=,0
36.35,140.45,0x6022243f9f62c197:0xdd18887b2b7be65e,64072,Dancing Hero,https://www.youtube.com/watch?v=,0
37.4,140.38333,0x60200d991cc0aa93:0xb24e911473db36cb,69188,Dancing Hero,https://www.youtube.com/watch?v=,0
37.05,140.88333,0x60210447d5208bc7:0x807a04d828077453,40835,Dancing Hero,https://www.youtube.com/watch?v=,0
37.75,140.46667,0x5f8a8ed12a3a4dd9:0xc064d0fc14fe346,40309,Dancing Hero,https://www.youtube.com/watch?v=,0
35.6,140.11667,0x60229ac1c8eec4df:0x689c0bdcac1d91e6,199136,Dancing Hero,https://www.youtube.com/watch?v=,0
39.71667,140.11667,0x5f8feaaf4d415e85:0x95eb25914685bab1,72738,Dancing Hero,https://www.youtube.com/watch?v=,0
46.95407,142.73603,0x5f19016b4f195737:0x848c2ae7bb49394b,52921,Тролль,https://www.youtube.com/watch?v=q--5Ht49vNY,0
43.06667,141.35,0x5f0ad4755a973633:0x33937e9d4687bad5,559654,Dancing Hero,https://www.youtube.com/watch?v=,0
41.77583,140.73667,0x5f9e5c2dd5bc4d21:0x917d7d2a9678c35b,31429,LIKEY,https://www.youtube.com/watch?v=V2hlQkVJZhE,0
40.5,141.5,0x5f9b4d6d1a08926b:0x5de124698da3784,39453,LIKEY,https://www.youtube.com/watch?v=V2hlQkVJZhE,0
40.81667,140.73333,0x5f9b9ff01c2b6aa3:0xffc62d9c6d85a17e,63475,LIKEY,https://www.youtube.com/watch?v=V2hlQkVJZhE,0
-22.27407,166.44884,0x6c27e2693f1a32cb:0x7bf1b22af312dd00,161285,Perfect,https://www.youtube.com/watch?v=2Vv-BfVoq4g,0
-33.86785,151.20732,0x6b129838f39a743f:0x3017d681632a850,2239205,Perfect,https://www.youtube.com/watch?v=2Vv-BfVoq4g,0
-32.92715,151.77647,0x6b733e1371c702e5:0x4017d681632a8a0,36773,Perfect,https://www.youtube.com/watch?v=2Vv-BfVoq4g,0
-37.814,144.96332,0x6ad646b5d2ba4df7:0x4045675218ccd90,1799392,Perfect,https://www.youtube.com/watch?v=2Vv-BfVoq4g,0
-28.00029,153.43088,0x6b911a472b5d60b7:0x302a35af3deaf70,126027,Perfect,https://www.youtube.com/watch?v=2Vv-BfVoq4g,0
-27.46794,153.02809,0x6b91579aac93d233:0x402a35af3deaf40,1039587,Perfect,https://www.youtube.com/watch?v=2Vv-BfVoq4g,0
-41.28664,174.77557,0x6d38b1fc49e974cb:0xa00ef63a213b470,155576,Perfect,https://www.youtube.com/watch?v=2Vv-BfVoq4g,0
-40.35636,175.61113,0x6d41ad9fbda34483:0x500ef6143a29915,43377,Perfect,https://www.youtube.com/watch?v=2Vv-BfVoq4g,0
-36.8,174.75,0x54867046f9232b41:0x6f85cb4bd4fbec5a,28398,Perfect,https://www.youtube.com/watch?v=2Vv-BfVoq4g,0
-39.06667,174.08333,0x6d14f9e62364ce0d:0x500ef6143a2e9a0,23115,Perfect,https://www.youtube.com/watch?v=2Vv-BfVoq4g,0
-39.4926,176.91233,0x6d69c9d64fb1ca99:0x500ef6143a2e850,43150,Havana,https://www.youtube.com/watch?v=BQ0mxQXmLsk,0
-41.21667,174.91667,0x6d4756496ea708fb:0x500ef6143a2db20,15963,Havana,https://www.youtube.com/watch?v=BQ0mxQXmLsk,0
-37.78333,175.28333,0x6d6d227487a63621:0x500ef6143a29903,91885,Havana,https://www.youtube.com/watch?v=BQ0mxQXmLsk,0
-45.87416,170.50361,0xa82be4e00f5f513d:0x500ef8684799941,39666,Perfect,https://www.youtube.com/watch?v=2Vv-BfVoq4g,0
-43.53333,172.63333,0x6d322f4863c5ed01:0x500ef8684799945,206633,Perfect,https://www.youtube.com/watch?v=2Vv-BfVoq4g,0
-36.84853,174.76349,0x6d0d47fb5a9ce6fb:0x500ef6143a29917,779947,Perfect,https://www.youtube.com/watch?v=2Vv-BfVoq4g,0
-18.14161,178.44149,0x6e1bde2242114fad:0xe2077574bb4dd7c9,76281,Perfect,https://www.youtube.com/watch?v=2Vv-BfVoq4g,0
-37.68611,176.16667,0x6d6e76e77bd464e5:0x500ef6143a39926,71585,Perfect,https://www.youtube.com/watch?v=2Vv-BfVoq4g,0
32.87519,13.18746,0x13a892c4c11c43d9:0x8d99d8947b5cec86,80784,Les Menottes (Tching Tchang Tchong),https://www.youtube.com/watch?v=Fvw4vOXyBPU,0
3.86667,11.51667,0x108bcf7a309a7977:0x7f54bad35e693c51,121919,Mannequin,https://www.youtube.com/watch?v=p4ljo8KpBkM,0
4.04827,9.70428,0x1061128be2e1fe6d:0x92daa1444781c48b,93856,Mannequin,https://www.youtube.com/watch?v=p4ljo8KpBkM,0
-8.83682,13.23432,0x1a51f15cdc8d2c7d:0x850c1c5c5ecc5a92,190840,Vou Partir Cama,https://www.youtube.com/watch?v=VeaQtiogx18,0
16.01793,-16.48962,0x87d8b4a9faed8ef9:0xbe39eaca22bbe05b,261785,Gucci Gang,https://www.youtube.com/watch?v=4LfJnj66HVQ,0
14.6937,-17.44406,0xec172f5b3c5bb71:0xb17c17d92d5db21f,692484,Lan La? (feat. Pape Thiopet),https://www.youtube.com/watch?v=QUF0Ac5xATI,0
38.70123,-9.3276,0xd1ecf342103871b:0x3f9fa0dfaa5a86b5,25315,Perfect,https://www.youtube.com/watch?v=2Vv-BfVoq4g,0
38.77457,-9.3276,0xd1ecfd3e616b3e3:0xfb40019462baf38b,17427,Perfect,https://www.youtube.com/watch?v=2Vv-BfVoq4g,0
38.75657,-9.25451,0xd1ecdc7b6a91dff:0x640e529d48f28a83,33443,Perfect,https://www.youtube.com/watch?v=2Vv-BfVoq4g,0
38.79269,-9.1838,0xd1932a9ba86c01b:0x9e3c39fcf710aa93,31005,Perfect,https://www.youtube.com/watch?v=2Vv-BfVoq4g,0
38.71667,-9.13333,0xd19331a61e4f33b:0x400ebbde49036d0,1091851,Perfect,https://www.youtube.com/watch?v=2Vv-BfVoq4g,0
39.74362,-8.80705,0xd22731534c9b2b9:0x4daf832739d43c6c,45268,Perfect,https://www.youtube.com/watch?v=2Vv-BfVoq4g,0
32.66568,-16.92547,0xc605fc3501f8bab:0xffd84d2c15cda139,108132,Perfect,https://www.youtube.com/watch?v=2Vv-BfVoq4g,0
37.01937,-7.93223,0xd0552e72290faa7:0x8d73c2d4494aff5a,41768,Perfect,https://www.youtube.com/watch?v=2Vv-BfVoq4g,0
38.56667,-7.9,0xd19e4df3883139d:0xa6ad8a31c3bdef6c,45809,Perfect,https://www.youtube.com/watch?v=2Vv-BfVoq4g,0
38.64502,-9.14843,0xd193570c106a8d3:0xe25836c859f50222,9968,Perfect,https://www.youtube.com/watch?v=2Vv-BfVoq4g,0
38.66314,-9.0724,0xd19364130a15035:0xf646c05c5d94b5f7,27457,Perfect,https://www.youtube.com/watch?v=2Vv-BfVoq4g,0
38.62961,-9.11557,0xd194a08e7049441:0x10eccf8c3182a851,17866,Perfect,https://www.youtube.com/watch?v=2Vv-BfVoq4g,0
38.75382,-9.23083,0xd1ecd089ae7d409:0xaf7a40877cf7ddbe,62124,Perfect,https://www.youtube.com/watch?v=2Vv-BfVoq4g,0
